{"properties": { "gml_id": "Camping_littoral.1", "IDENTIFIAN": 208, "DENOMINATI": "Camping saisonnier Ar Breizh Gîte", "STRUCTURE": "TOUSA", "CLASSEMENT": "Sans étoiles", "CAPACITE": "48", "CAPACITE0": "Places", "CREATION": null, "ADRESSE": "La Montagne", "LIEU_DIT": "Toul an Anken", "COMMUNE": "Argol", "INSEE": "29001", "DEPARTEMEN": "29" }, "geometry": { "type": "Point", "coordinates": [ -4.312616243749656, 48.232753433122198 ] }}
{"properties": { "gml_id": "Camping_littoral.10", "IDENTIFIAN": 217, "DENOMINATI": "Camping Municipal de Rudoloc", "STRUCTURE": "CLASS", "CLASSEMENT": "1 étoile", "CAPACITE": "75", "CAPACITE0": "Places", "CREATION": null, "ADRESSE": "route de Meneham", "LIEU_DIT": null, "COMMUNE": "Kerlouan", "INSEE": "29091", "DEPARTEMEN": "29" }, "geometry": { "type": "Point", "coordinates": [ -4.376741714096982, 48.66220636688071 ] }}
{"properties": { "gml_id": "Camping_littoral.100", "IDENTIFIAN": 410, "DENOMINATI": "Camping de Kersigny", "STRUCTURE": "CLASS", "CLASSEMENT": "2 étoiles", "CAPACITE": "100", "CAPACITE0": "Places", "CREATION": null, "ADRESSE": "1 rue Nominoé", "LIEU_DIT": null, "COMMUNE": "Plouhinec", "INSEE": "29197", "DEPARTEMEN": "29" }, "geometry": { "type": "Point", "coordinates": [ -4.50798548463322, 48.006618863587171 ] }}
{"properties": { "gml_id": "Camping_littoral.101", "IDENTIFIAN": 411, "DENOMINATI": "Camping les Falaises", "STRUCTURE": "CLASS", "CLASSEMENT": "3 étoiles", "CAPACITE": "120", "CAPACITE0": "Places", "CREATION": null, "ADRESSE": "Kerleven", "LIEU_DIT": null, "COMMUNE": "La Forêt-Fouesnant", "INSEE": "29057", "DEPARTEMEN": "29" }, "geometry": { "type": "Point", "coordinates": [ -3.95860423833256, 47.897770565611204 ] }}
{"properties": { "gml_id": "Camping_littoral.102", "IDENTIFIAN": 412, "DENOMINATI": "Camping Karreg Skividen", "STRUCTURE": "CLASS", "CLASSEMENT": "2 étoiles", "CAPACITE": "45", "CAPACITE0": "Places", "CREATION": null, "ADRESSE": "Squividan", "LIEU_DIT": null, "COMMUNE": "Treffiagat", "INSEE": "29284", "DEPARTEMEN": "29" }, "geometry": { "type": "Point", "coordinates": [ -4.247335611172349, 47.796254719451134 ] }}
{"properties": { "gml_id": "Camping_littoral.103", "IDENTIFIAN": 413, "DENOMINATI": "Camping le Bois d'Amour", "STRUCTURE": "CLASS", "CLASSEMENT": "2 étoiles", "CAPACITE": "70", "CAPACITE0": "Places", "CREATION": null, "ADRESSE": "18 bis Avenue des Sports", "LIEU_DIT": null, "COMMUNE": "Ile-Tudy", "INSEE": "29085", "DEPARTEMEN": "29" }, "geometry": { "type": "Point", "coordinates": [ -4.162541958636201, 47.852581106562958 ] }}
{"properties": { "gml_id": "Camping_littoral.104", "IDENTIFIAN": 414, "DENOMINATI": "Camping Fort Cézon", "STRUCTURE": "CLASS", "CLASSEMENT": "1 étoile", "CAPACITE": "36", "CAPACITE0": "Places", "CREATION": null, "ADRESSE": "201 Kerarmoal", "LIEU_DIT": null, "COMMUNE": "Landéda", "INSEE": "29101", "DEPARTEMEN": "29" }, "geometry": { "type": "Point", "coordinates": [ -4.595421481022472, 48.601374664722421 ] }}
{"properties": { "gml_id": "Camping_littoral.105", "IDENTIFIAN": 415, "DENOMINATI": "Camping le Kergorz", "STRUCTURE": "CLASS", "CLASSEMENT": "1 étoile", "CAPACITE": "40", "CAPACITE0": "Places", "CREATION": null, "ADRESSE": "Plage de Lestrevet", "LIEU_DIT": null, "COMMUNE": "Plomodiern", "INSEE": "29172", "DEPARTEMEN": "29" }, "geometry": { "type": "Point", "coordinates": [ -4.291791561031438, 48.180599193862051 ] }}
{"properties": { "gml_id": "Camping_littoral.106", "IDENTIFIAN": 416, "DENOMINATI": "Camping de la Pointe", "STRUCTURE": "CLASS", "CLASSEMENT": "2 étoiles", "CAPACITE": "85", "CAPACITE0": "Places", "CREATION": null, "ADRESSE": "123 route de la Pointe", "LIEU_DIT": null, "COMMUNE": "Fouesnant", "INSEE": "29058", "DEPARTEMEN": "29" }, "geometry": { "type": "Point", "coordinates": [ -4.039180079052008, 47.849917270306634 ] }}
{"properties": { "gml_id": "Camping_littoral.107", "IDENTIFIAN": 417, "DENOMINATI": "Camping Municipal de la Mer", "STRUCTURE": "CLASS", "CLASSEMENT": "2 étoiles", "CAPACITE": "63", "CAPACITE0": "Places", "CREATION": null, "ADRESSE": "15 route de Karreg An Ty", "LIEU_DIT": "Primel - Trégastel", "COMMUNE": "Plougasnou", "INSEE": "29188", "DEPARTEMEN": "29" }, "geometry": { "type": "Point", "coordinates": [ -3.81543544481382, 48.715202176686361 ] }}
{"properties": { "gml_id": "Camping_littoral.108", "IDENTIFIAN": 418, "DENOMINATI": "Camping le Grand Large", "STRUCTURE": "CLASS", "CLASSEMENT": "4 étoiles", "CAPACITE": "123", "CAPACITE0": "Places", "CREATION": null, "ADRESSE": "Lambezen", "LIEU_DIT": null, "COMMUNE": "Camaret-sur-Mer", "INSEE": "29022", "DEPARTEMEN": "29" }, "geometry": { "type": "Point", "coordinates": [ -4.565018741751027, 48.28035131177392 ] }}
{"properties": { "gml_id": "Camping_littoral.109", "IDENTIFIAN": 419, "DENOMINATI": "Camping les Grands Sables", "STRUCTURE": "CLASS", "CLASSEMENT": "2 étoiles", "CAPACITE": "141", "CAPACITE0": "Places", "CREATION": null, "ADRESSE": "22 rue du Philosophe Alain", "LIEU_DIT": "Le Pouldu", "COMMUNE": "Clohars-Carnoët", "INSEE": "29031", "DEPARTEMEN": "29" }, "geometry": { "type": "Point", "coordinates": [ -3.547267336115218, 47.768690192705506 ] }}
{"properties": { "gml_id": "Camping_littoral.11", "IDENTIFIAN": 218, "DENOMINATI": "Camping Municipal de Porspaul", "STRUCTURE": "CLASS", "CLASSEMENT": "2 étoiles", "CAPACITE": "70", "CAPACITE0": "Places", "CREATION": null, "ADRESSE": "Rue de l'Iroise", "LIEU_DIT": null, "COMMUNE": "Lampaul-Plouarzel", "INSEE": "29098", "DEPARTEMEN": "29" }, "geometry": { "type": "Point", "coordinates": [ -4.776504783784944, 48.44714059556194 ] }}
{"properties": { "gml_id": "Camping_littoral.110", "IDENTIFIAN": 420, "DENOMINATI": "Camping les Prés Verts", "STRUCTURE": "CLASS", "CLASSEMENT": "4 étoiles", "CAPACITE": "150", "CAPACITE0": "Places", "CREATION": null, "ADRESSE": "Kernous-Plage", "LIEU_DIT": null, "COMMUNE": "Concarneau", "INSEE": "29039", "DEPARTEMEN": "29" }, "geometry": { "type": "Point", "coordinates": [ -3.940380623908681, 47.889510420078999 ] }}
{"properties": { "gml_id": "Camping_littoral.111", "IDENTIFIAN": 421, "DENOMINATI": "Camping Sunélia l'Atlantique", "STRUCTURE": "CLASS", "CLASSEMENT": "4 étoiles", "CAPACITE": "432", "CAPACITE0": "Places", "CREATION": null, "ADRESSE": "Route de Mousterlin", "LIEU_DIT": null, "COMMUNE": "Fouesnant", "INSEE": "29058", "DEPARTEMEN": "29" }, "geometry": { "type": "Point", "coordinates": [ -4.019625943950836, 47.856998920325346 ] }}
{"properties": { "gml_id": "Camping_littoral.112", "IDENTIFIAN": 422, "DENOMINATI": "Camping les Blancs Sablons", "STRUCTURE": "CLASS", "CLASSEMENT": "2 étoiles", "CAPACITE": "450", "CAPACITE0": "Places", "CREATION": null, "ADRESSE": "Les Blancs Sablons", "LIEU_DIT": "Presqu'île de Kermorvan", "COMMUNE": "Le Conquet", "INSEE": "29040", "DEPARTEMEN": "29" }, "geometry": { "type": "Point", "coordinates": [ -4.758332970692802, 48.366987989921924 ] }}
{"properties": { "gml_id": "Camping_littoral.113", "IDENTIFIAN": 423, "DENOMINATI": "Camping de Croas an Ter", "STRUCTURE": "CLASS", "CLASSEMENT": "2 étoiles", "CAPACITE": "90", "CAPACITE0": "Places", "CREATION": null, "ADRESSE": "Quelvez", "LIEU_DIT": null, "COMMUNE": "Clohars-Carnoët", "INSEE": "29031", "DEPARTEMEN": "29" }, "geometry": { "type": "Point", "coordinates": [ -3.544622072337815, 47.784652271337457 ] }}
{"properties": { "gml_id": "Camping_littoral.114", "IDENTIFIAN": 424, "DENOMINATI": "Camping de Kersaux", "STRUCTURE": "CLASS", "CLASSEMENT": "2 étoiles", "CAPACITE": "100", "CAPACITE0": "Places", "CREATION": null, "ADRESSE": "le Cabellou", "LIEU_DIT": null, "COMMUNE": "Concarneau", "INSEE": "29039", "DEPARTEMEN": "29" }, "geometry": { "type": "Point", "coordinates": [ -3.902731214698091, 47.855653692582173 ] }}
{"properties": { "gml_id": "Camping_littoral.115", "IDENTIFIAN": 425, "DENOMINATI": "Camping Pen ar Menez", "STRUCTURE": "CLASS", "CLASSEMENT": "2 étoiles", "CAPACITE": "142", "CAPACITE0": "Places", "CREATION": null, "ADRESSE": null, "LIEU_DIT": null, "COMMUNE": "Crozon", "INSEE": "29042", "DEPARTEMEN": "29" }, "geometry": { "type": "Point", "coordinates": [ -4.499138779300592, 48.249017096541735 ] }}
{"properties": { "gml_id": "Camping_littoral.116", "IDENTIFIAN": 426, "DENOMINATI": "Camping Odet Village", "STRUCTURE": "CLASS", "CLASSEMENT": "2 étoiles", "CAPACITE": "73", "CAPACITE0": "Places", "CREATION": null, "ADRESSE": "2 Hent ar Moor", "LIEU_DIT": null, "COMMUNE": "Gouesnac'h", "INSEE": "29060", "DEPARTEMEN": "29" }, "geometry": { "type": "Point", "coordinates": [ -4.102756384940887, 47.903990850319836 ] }}
{"properties": { "gml_id": "Camping_littoral.117", "IDENTIFIAN": 427, "DENOMINATI": "Aire naturelle Ty Poas", "STRUCTURE": "TOUNA", "CLASSEMENT": null, "CAPACITE": "20", "CAPACITE0": "Places", "CREATION": null, "ADRESSE": null, "LIEU_DIT": null, "COMMUNE": "Goulven", "INSEE": "29064", "DEPARTEMEN": "29" }, "geometry": { "type": "Point", "coordinates": [ -4.308085570816363, 48.63155193681515 ] }}
{"properties": { "gml_id": "Camping_littoral.118", "IDENTIFIAN": 428, "DENOMINATI": "Camping municipal", "STRUCTURE": "CLASS", "CLASSEMENT": "1 étoile", "CAPACITE": "40", "CAPACITE0": "Places", "CREATION": null, "ADRESSE": "Le Curnic", "LIEU_DIT": null, "COMMUNE": "Guissény", "INSEE": "29077", "DEPARTEMEN": "29" }, "geometry": { "type": "Point", "coordinates": [ -4.447362231151521, 48.636147998110033 ] }}
{"properties": { "gml_id": "Camping_littoral.119", "IDENTIFIAN": 429, "DENOMINATI": "Camping de la Palud du Cosquer", "STRUCTURE": "CLASS", "CLASSEMENT": "1 étoile", "CAPACITE": "55", "CAPACITE0": "Places", "CREATION": null, "ADRESSE": "Chemin Toul Pesket", "LIEU_DIT": null, "COMMUNE": "Loctudy", "INSEE": "29135", "DEPARTEMEN": "29" }, "geometry": { "type": "Point", "coordinates": [ -4.202890838886669, 47.800819610626313 ] }}
{"properties": { "gml_id": "Camping_littoral.12", "IDENTIFIAN": 219, "DENOMINATI": "Camping de Gouelet Ker", "STRUCTURE": "CLASS", "CLASSEMENT": "1 étoile", "CAPACITE": "50", "CAPACITE0": "Places", "CREATION": null, "ADRESSE": null, "LIEU_DIT": null, "COMMUNE": "Logonna-Daoulas", "INSEE": "29137", "DEPARTEMEN": "29" }, "geometry": { "type": "Point", "coordinates": [ -4.314393107057731, 48.322546071526197 ] }}
{"properties": { "gml_id": "Camping_littoral.120", "IDENTIFIAN": 430, "DENOMINATI": "Camping de Kérandro", "STRUCTURE": "CLASS", "CLASSEMENT": "2 étoiles", "CAPACITE": "69", "CAPACITE0": "Places", "CREATION": null, "ADRESSE": null, "LIEU_DIT": null, "COMMUNE": "Loctudy", "INSEE": "29135", "DEPARTEMEN": "29" }, "geometry": { "type": "Point", "coordinates": [ -4.191722955549245, 47.834443071947618 ] }}
{"properties": { "gml_id": "Camping_littoral.121", "IDENTIFIAN": 431, "DENOMINATI": "Camping Municipal des Dunes", "STRUCTURE": "CLASS", "CLASSEMENT": "2 étoiles", "CAPACITE": "100", "CAPACITE0": "Places", "CREATION": null, "ADRESSE": null, "LIEU_DIT": null, "COMMUNE": "Santec", "INSEE": "29273", "DEPARTEMEN": "29" }, "geometry": { "type": "Point", "coordinates": [ -4.055450006782642, 48.692611779340815 ] }}
{"properties": { "gml_id": "Camping_littoral.122", "IDENTIFIAN": 432, "DENOMINATI": "Camping Le Théven", "STRUCTURE": "CLASS", "CLASSEMENT": "2 étoiles", "CAPACITE": "50", "CAPACITE0": "Places", "CREATION": null, "ADRESSE": "Pors Misclic", "LIEU_DIT": "Moguériec", "COMMUNE": "Sibiril", "INSEE": "29276", "DEPARTEMEN": "29" }, "geometry": { "type": "Point", "coordinates": [ -4.085937527218729, 48.690323124325438 ] }}
{"properties": { "gml_id": "Camping_littoral.123", "IDENTIFIAN": 433, "DENOMINATI": "Aire naturelle de Creach Lann", "STRUCTURE": "TOUNA", "CLASSEMENT": null, "CAPACITE": "25", "CAPACITE0": "Places", "CREATION": null, "ADRESSE": null, "LIEU_DIT": null, "COMMUNE": "Saint-Évarzec", "INSEE": "29247", "DEPARTEMEN": "29" }, "geometry": { "type": "Point", "coordinates": [ -3.997349431937002, 47.939027004373408 ] }}
{"properties": { "gml_id": "Camping_littoral.124", "IDENTIFIAN": 434, "DENOMINATI": "Camping les Peupliers", "STRUCTURE": "CLASS", "CLASSEMENT": "2 étoiles", "CAPACITE": "30", "CAPACITE0": "Places", "CREATION": null, "ADRESSE": null, "LIEU_DIT": null, "COMMUNE": "Pouldreuzic", "INSEE": "29225", "DEPARTEMEN": "29" }, "geometry": { "type": "Point", "coordinates": [ -4.366551494339955, 47.966185174665021 ] }}
{"properties": { "gml_id": "Camping_littoral.125", "IDENTIFIAN": 435, "DENOMINATI": "Domaine de Kerlann", "STRUCTURE": "CLASS", "CLASSEMENT": "4 étoiles", "CAPACITE": "783", "CAPACITE0": "Places", "CREATION": null, "ADRESSE": "Land Rosted", "LIEU_DIT": null, "COMMUNE": "Pont-Aven", "INSEE": "29217", "DEPARTEMEN": "29" }, "geometry": { "type": "Point", "coordinates": [ -3.789005671656092, 47.845258033370449 ] }}
{"properties": { "gml_id": "Camping_littoral.126", "IDENTIFIAN": 436, "DENOMINATI": "Camping Municipal de Porscuidic", "STRUCTURE": "CLASS", "CLASSEMENT": "2 étoiles", "CAPACITE": "50", "CAPACITE0": "Places", "CREATION": null, "ADRESSE": null, "LIEU_DIT": null, "COMMUNE": "Plouarzel", "INSEE": "29177", "DEPARTEMEN": "29" }, "geometry": { "type": "Point", "coordinates": [ -4.783101809406292, 48.436117427232958 ] }}
{"properties": { "gml_id": "Camping_littoral.127", "IDENTIFIAN": 437, "DENOMINATI": "Camping Municipal de Ruscumunoc", "STRUCTURE": "CLASS", "CLASSEMENT": "2 étoiles", "CAPACITE": "50", "CAPACITE0": "Places", "CREATION": null, "ADRESSE": null, "LIEU_DIT": null, "COMMUNE": "Plouarzel", "INSEE": "29177", "DEPARTEMEN": "29" }, "geometry": { "type": "Point", "coordinates": [ -4.785319458411444, 48.422800920555048 ] }}
{"properties": { "gml_id": "Camping_littoral.128", "IDENTIFIAN": 438, "DENOMINATI": "Camping du Menez Hom", "STRUCTURE": "CLASS", "CLASSEMENT": "3 étoiles", "CAPACITE": "60", "CAPACITE0": "Places", "CREATION": null, "ADRESSE": null, "LIEU_DIT": null, "COMMUNE": "Plomodiern", "INSEE": "29172", "DEPARTEMEN": "29" }, "geometry": { "type": "Point", "coordinates": [ -4.25425279676484, 48.201502494666684 ] }}
{"properties": { "gml_id": "Camping_littoral.129", "IDENTIFIAN": 439, "DENOMINATI": "Camping de Kersentic", "STRUCTURE": "CLASS", "CLASSEMENT": "2 étoiles", "CAPACITE": "80", "CAPACITE0": "Places", "CREATION": null, "ADRESSE": "Hent Kersentic", "LIEU_DIT": "Cap Coz", "COMMUNE": "Fouesnant", "INSEE": "29058", "DEPARTEMEN": "29" }, "geometry": { "type": "Point", "coordinates": [ -3.998194170881845, 47.884438107312661 ] }}
{"properties": { "gml_id": "Camping_littoral.13", "IDENTIFIAN": 220, "DENOMINATI": "Camping Kerscolper", "STRUCTURE": "CLASS", "CLASSEMENT": "2 étoiles", "CAPACITE": "160", "CAPACITE0": "Places", "CREATION": null, "ADRESSE": "Hent Kerscolper", "LIEU_DIT": "Cap-Coz", "COMMUNE": "Fouesnant", "INSEE": "29058", "DEPARTEMEN": "29" }, "geometry": { "type": "Point", "coordinates": [ -3.992844585662238, 47.87961925539846 ] }}
{"properties": { "gml_id": "Camping_littoral.130", "IDENTIFIAN": 440, "DENOMINATI": "Camping de Kernaou", "STRUCTURE": "CLASS", "CLASSEMENT": "2 étoiles", "CAPACITE": "100", "CAPACITE0": "Places", "CREATION": null, "ADRESSE": null, "LIEU_DIT": null, "COMMUNE": "Crozon", "INSEE": "29042", "DEPARTEMEN": "29" }, "geometry": { "type": "Point", "coordinates": [ -4.542635025936093, 48.269212594312563 ] }}
{"properties": { "gml_id": "Camping_littoral.131", "IDENTIFIAN": 441, "DENOMINATI": "Camping le Quinquis", "STRUCTURE": "CLASS", "CLASSEMENT": "3 étoiles", "CAPACITE": "162", "CAPACITE0": "Places", "CREATION": null, "ADRESSE": null, "LIEU_DIT": null, "COMMUNE": "Clohars-Carnoët", "INSEE": "29031", "DEPARTEMEN": "29" }, "geometry": { "type": "Point", "coordinates": [ -3.550765111847498, 47.78737745014984 ] }}
{"properties": { "gml_id": "Camping_littoral.132", "IDENTIFIAN": 442, "DENOMINATI": "Aire naturelle de Kéringard", "STRUCTURE": "TOUNA", "CLASSEMENT": null, "CAPACITE": "25", "CAPACITE0": "Places", "CREATION": null, "ADRESSE": null, "LIEU_DIT": null, "COMMUNE": "Cléden-Cap-Sizun", "INSEE": "29028", "DEPARTEMEN": "29" }, "geometry": { "type": "Point", "coordinates": [ -4.630580783992129, 48.04463904289922 ] }}
{"properties": { "gml_id": "Camping_littoral.133", "IDENTIFIAN": 443, "DENOMINATI": "Domaine de Pendruc", "STRUCTURE": "CLASS", "CLASSEMENT": "3 étoiles", "CAPACITE": "170", "CAPACITE0": "Places", "CREATION": null, "ADRESSE": "Roz Penanguer", "LIEU_DIT": null, "COMMUNE": "Trégunc", "INSEE": "29293", "DEPARTEMEN": "29" }, "geometry": { "type": "Point", "coordinates": [ -3.878962941691233, 47.839412258913768 ] }}
{"properties": { "gml_id": "Camping_littoral.134", "IDENTIFIAN": 444, "DENOMINATI": "Camping Pen ar Bed", "STRUCTURE": "CLASS", "CLASSEMENT": "2 étoiles", "CAPACITE": "95", "CAPACITE0": "Places", "CREATION": null, "ADRESSE": null, "LIEU_DIT": null, "COMMUNE": "Trégunc", "INSEE": "29293", "DEPARTEMEN": "29" }, "geometry": { "type": "Point", "coordinates": [ -3.838460088437087, 47.803384416403688 ] }}
{"properties": { "gml_id": "Camping_littoral.135", "IDENTIFIAN": 445, "DENOMINATI": "Camping Aire naturelle au Bon Vivre", "STRUCTURE": "TOUNA", "CLASSEMENT": null, "CAPACITE": "15", "CAPACITE0": "Places", "CREATION": null, "ADRESSE": "Kerguerriet", "LIEU_DIT": null, "COMMUNE": "Goulien", "INSEE": "29063", "DEPARTEMEN": "29" }, "geometry": { "type": "Point", "coordinates": [ -4.601777703035377, 48.069464743798179 ] }}
{"properties": { "gml_id": "Camping_littoral.136", "IDENTIFIAN": 446, "DENOMINATI": "Camping de l'Aber", "STRUCTURE": "CLASS", "CLASSEMENT": "2 étoiles", "CAPACITE": "100", "CAPACITE0": "Places", "CREATION": null, "ADRESSE": "route Plage de l'Aber", "LIEU_DIT": null, "COMMUNE": "Crozon", "INSEE": "29042", "DEPARTEMEN": "29" }, "geometry": { "type": "Point", "coordinates": [ -4.429589300219148, 48.24218342597969 ] }}
{"properties": { "gml_id": "Camping_littoral.137", "IDENTIFIAN": 447, "DENOMINATI": "Camping les Genêts", "STRUCTURE": "CLASS", "CLASSEMENT": "2 étoiles", "CAPACITE": "100", "CAPACITE0": "Places", "CREATION": null, "ADRESSE": "rue Gouesnac'h Nevez", "LIEU_DIT": null, "COMMUNE": "Penmarch", "INSEE": "29158", "DEPARTEMEN": "29" }, "geometry": { "type": "Point", "coordinates": [ -4.309218946045021, 47.818980674128646 ] }}
{"properties": { "gml_id": "Camping_littoral.138", "IDENTIFIAN": 448, "DENOMINATI": "Camping de la Mer", "STRUCTURE": "CLASS", "CLASSEMENT": "2 étoiles", "CAPACITE": "54", "CAPACITE0": "Places", "CREATION": null, "ADRESSE": "Ty-Anquer", "LIEU_DIT": null, "COMMUNE": "Ploéven", "INSEE": "29166", "DEPARTEMEN": "29" }, "geometry": { "type": "Point", "coordinates": [ -4.268199524333019, 48.147587206682033 ] }}
{"properties": { "gml_id": "Camping_littoral.139", "IDENTIFIAN": 449, "DENOMINATI": "Camping Tal ar Moor", "STRUCTURE": "CLASS", "CLASSEMENT": "2 étoiles", "CAPACITE": "90", "CAPACITE0": "Places", "CREATION": null, "ADRESSE": "Kerfany les Pins", "LIEU_DIT": null, "COMMUNE": "Moëlan-sur-Mer", "INSEE": "29150", "DEPARTEMEN": "29" }, "geometry": { "type": "Point", "coordinates": [ -3.716872781174533, 47.80270323371554 ] }}
{"properties": { "gml_id": "Camping_littoral.14", "IDENTIFIAN": 221, "DENOMINATI": "Camping Municipal des Berges de l'Elorn", "STRUCTURE": "CLASS", "CLASSEMENT": "2 étoiles", "CAPACITE": "42", "CAPACITE0": "Places", "CREATION": null, "ADRESSE": "Rue du Calvaire", "LIEU_DIT": null, "COMMUNE": "Landerneau", "INSEE": "29103", "DEPARTEMEN": "29" }, "geometry": { "type": "Point", "coordinates": [ -4.258157185918688, 48.446481843872633 ] }}
{"properties": { "gml_id": "Camping_littoral.140", "IDENTIFIAN": 450, "DENOMINATI": "Camping d'Ys", "STRUCTURE": "CLASS", "CLASSEMENT": "2 étoiles", "CAPACITE": "50", "CAPACITE0": "Places", "CREATION": null, "ADRESSE": "plage de Kervel", "LIEU_DIT": null, "COMMUNE": "Plonévez-Porzay", "INSEE": "29176", "DEPARTEMEN": "29" }, "geometry": { "type": "Point", "coordinates": [ -4.273489138350238, 48.116525826110227 ] }}
{"properties": { "gml_id": "Camping_littoral.141", "IDENTIFIAN": 451, "DENOMINATI": "Camping les Bruyères", "STRUCTURE": "CLASS", "CLASSEMENT": "2 étoiles", "CAPACITE": "130", "CAPACITE0": "Places", "CREATION": null, "ADRESSE": "Le Bouis", "LIEU_DIT": "Morgat", "COMMUNE": "Crozon", "INSEE": "29042", "DEPARTEMEN": "29" }, "geometry": { "type": "Point", "coordinates": [ -4.522694643409773, 48.221421120771851 ] }}
{"properties": { "gml_id": "Camping_littoral.142", "IDENTIFIAN": 452, "DENOMINATI": "Camping de la Baie", "STRUCTURE": "CLASS", "CLASSEMENT": "2 étoiles", "CAPACITE": "27", "CAPACITE0": "Places", "CREATION": null, "ADRESSE": "Lescleden", "LIEU_DIT": null, "COMMUNE": "Cléden-Cap-Sizun", "INSEE": "29028", "DEPARTEMEN": "29" }, "geometry": { "type": "Point", "coordinates": [ -4.683214636714489, 48.047840776958424 ] }}
{"properties": { "gml_id": "Camping_littoral.143", "IDENTIFIAN": 453, "DENOMINATI": "Camping de la Cale", "STRUCTURE": "CLASS", "CLASSEMENT": "2 étoiles", "CAPACITE": "51", "CAPACITE0": "Places", "CREATION": null, "ADRESSE": "la Cale", "LIEU_DIT": null, "COMMUNE": "Lanvéoc", "INSEE": "29120", "DEPARTEMEN": "29" }, "geometry": { "type": "Point", "coordinates": [ -4.45964442713735, 48.292448862068433 ] }}
{"properties": { "gml_id": "Camping_littoral.144", "IDENTIFIAN": 454, "DENOMINATI": "Camping Gîte de Loquéran", "STRUCTURE": "CLASS", "CLASSEMENT": "2 étoiles", "CAPACITE": "26", "CAPACITE0": "Places", "CREATION": null, "ADRESSE": "rue Jeanne de Beauregard", "LIEU_DIT": null, "COMMUNE": "Plouhinec", "INSEE": "29197", "DEPARTEMEN": "29" }, "geometry": { "type": "Point", "coordinates": [ -4.528981199566089, 48.024552483253949 ] }}
{"properties": { "gml_id": "Camping_littoral.145", "IDENTIFIAN": 455, "DENOMINATI": "Camping de Kerandon", "STRUCTURE": "CLASS", "CLASSEMENT": "2 étoiles", "CAPACITE": "0", "CAPACITE0": "Places", "CREATION": null, "ADRESSE": "Kerandon Beuzec", "LIEU_DIT": null, "COMMUNE": "Concarneau", "INSEE": "29039", "DEPARTEMEN": "29" }, "geometry": { "type": "Point", "coordinates": [ -3.918613731332277, 47.886666804221043 ] }}
{"properties": { "gml_id": "Camping_littoral.146", "IDENTIFIAN": 456, "DENOMINATI": "Aire naturelle de Kerzuel", "STRUCTURE": "TOUNA", "CLASSEMENT": null, "CAPACITE": "16", "CAPACITE0": "Places", "CREATION": null, "ADRESSE": "Kerzuel", "LIEU_DIT": null, "COMMUNE": "Gouesnac'h", "INSEE": "29060", "DEPARTEMEN": "29" }, "geometry": { "type": "Point", "coordinates": [ -4.135165826388804, 47.914700539321665 ] }}
{"properties": { "gml_id": "Camping_littoral.147", "IDENTIFIAN": 457, "DENOMINATI": "Aire naturelle de Tréfuntec", "STRUCTURE": "TOUNA", "CLASSEMENT": null, "CAPACITE": "16", "CAPACITE0": "Places", "CREATION": null, "ADRESSE": null, "LIEU_DIT": null, "COMMUNE": "Plonévez-Porzay", "INSEE": "29176", "DEPARTEMEN": "29" }, "geometry": { "type": "Point", "coordinates": [ -4.265098195070498, 48.127762526762055 ] }}
{"properties": { "gml_id": "Camping_littoral.148", "IDENTIFIAN": 458, "DENOMINATI": "Camping du Trégor", "STRUCTURE": "CLASS", "CLASSEMENT": "2 étoiles", "CAPACITE": "60", "CAPACITE0": "Places", "CREATION": null, "ADRESSE": null, "LIEU_DIT": null, "COMMUNE": "Plougasnou", "INSEE": "29188", "DEPARTEMEN": "29" }, "geometry": { "type": "Point", "coordinates": [ -3.784887217102556, 48.684968649673159 ] }}
{"properties": { "gml_id": "Camping_littoral.149", "IDENTIFIAN": 459, "DENOMINATI": "Aire naturelle de Logan", "STRUCTURE": "TOUNA", "CLASSEMENT": null, "CAPACITE": "25", "CAPACITE0": "Places", "CREATION": null, "ADRESSE": "Manoir de Logan", "LIEU_DIT": null, "COMMUNE": "Pouldreuzic", "INSEE": "29225", "DEPARTEMEN": "29" }, "geometry": { "type": "Point", "coordinates": [ -4.368598884860184, 47.965940406436097 ] }}
{"properties": { "gml_id": "Camping_littoral.15", "IDENTIFIAN": 222, "DENOMINATI": "Camping municipal du Tromeur", "STRUCTURE": "CLASS", "CLASSEMENT": "2 étoiles", "CAPACITE": "70", "CAPACITE0": "Places", "CREATION": null, "ADRESSE": "route du camping", "LIEU_DIT": null, "COMMUNE": "Lanildut", "INSEE": "29112", "DEPARTEMEN": "29" }, "geometry": { "type": "Point", "coordinates": [ -4.751938574685264, 48.479509091742365 ] }}
{"properties": { "gml_id": "Camping_littoral.150", "IDENTIFIAN": 460, "DENOMINATI": "Camping de la Grève Blanche", "STRUCTURE": "CLASS", "CLASSEMENT": "2 étoiles", "CAPACITE": "100", "CAPACITE0": "Places", "CREATION": null, "ADRESSE": null, "LIEU_DIT": null, "COMMUNE": "Guilvinec (Le)", "INSEE": "29072", "DEPARTEMEN": "29" }, "geometry": { "type": "Point", "coordinates": [ -4.299411436597333, 47.801655436704934 ] }}
{"properties": { "gml_id": "Camping_littoral.151", "IDENTIFIAN": 461, "DENOMINATI": "Camping les Cléden", "STRUCTURE": "CLASS", "CLASSEMENT": "2 étoiles", "CAPACITE": "84", "CAPACITE0": "Places", "CREATION": null, "ADRESSE": "Kermoor", "LIEU_DIT": null, "COMMUNE": "Ile-Tudy", "INSEE": "29085", "DEPARTEMEN": "29" }, "geometry": { "type": "Point", "coordinates": [ -4.164230425520021, 47.851973058351618 ] }}
{"properties": { "gml_id": "Camping_littoral.152", "IDENTIFIAN": 462, "DENOMINATI": "Camping les Sables Blancs", "STRUCTURE": "CLASS", "CLASSEMENT": "2 étoiles", "CAPACITE": "100", "CAPACITE0": "Places", "CREATION": null, "ADRESSE": "Les Sables Blancs", "LIEU_DIT": null, "COMMUNE": "Locquirec", "INSEE": "29133", "DEPARTEMEN": "29" }, "geometry": { "type": "Point", "coordinates": [ -3.659067864234991, 48.690563855960036 ] }}
{"properties": { "gml_id": "Camping_littoral.153", "IDENTIFIAN": 463, "DENOMINATI": "Camping de Kerity", "STRUCTURE": "CLASS", "CLASSEMENT": "2 étoiles", "CAPACITE": "66", "CAPACITE0": "Places", "CREATION": null, "ADRESSE": "Kérity", "LIEU_DIT": null, "COMMUNE": "Penmarch", "INSEE": "29158", "DEPARTEMEN": "29" }, "geometry": { "type": "Point", "coordinates": [ -4.351887846784897, 47.801505999620403 ] }}
{"properties": { "gml_id": "Camping_littoral.154", "IDENTIFIAN": 464, "DENOMINATI": "Camping CCAS", "STRUCTURE": "CLASS", "CLASSEMENT": "2 étoiles", "CAPACITE": "150", "CAPACITE0": "Places", "CREATION": null, "ADRESSE": "Tresmalaouen", "LIEU_DIT": null, "COMMUNE": "Plonévez-Porzay", "INSEE": "29176", "DEPARTEMEN": "29" }, "geometry": { "type": "Point", "coordinates": [ -4.279474295354156, 48.110125223458539 ] }}
{"properties": { "gml_id": "Camping_littoral.155", "IDENTIFIAN": 465, "DENOMINATI": "Camping la Porte Neuve", "STRUCTURE": "CLASS", "CLASSEMENT": "2 étoiles", "CAPACITE": "50", "CAPACITE0": "Places", "CREATION": null, "ADRESSE": null, "LIEU_DIT": null, "COMMUNE": "Riec-sur-Bélon", "INSEE": "29236", "DEPARTEMEN": "29" }, "geometry": { "type": "Point", "coordinates": [ -3.684706855553949, 47.824423890583276 ] }}
{"properties": { "gml_id": "Camping_littoral.156", "IDENTIFIAN": 466, "DENOMINATI": "Camping GCU", "STRUCTURE": "CLASS", "CLASSEMENT": "2 étoiles", "CAPACITE": "94", "CAPACITE0": "Places", "CREATION": null, "ADRESSE": "Trévignon", "LIEU_DIT": null, "COMMUNE": "Trégunc", "INSEE": "29293", "DEPARTEMEN": "29" }, "geometry": { "type": "Point", "coordinates": [ -3.847795729678223, 47.799759218546306 ] }}
{"properties": { "gml_id": "Camping_littoral.157", "IDENTIFIAN": 467, "DENOMINATI": "Camping la Pinède", "STRUCTURE": "CLASS", "CLASSEMENT": "2 étoiles", "CAPACITE": "200", "CAPACITE0": "Places", "CREATION": null, "ADRESSE": null, "LIEU_DIT": null, "COMMUNE": "Trégunc", "INSEE": "29293", "DEPARTEMEN": "29" }, "geometry": { "type": "Point", "coordinates": [ -3.846991716429513, 47.859288338560141 ] }}
{"properties": { "gml_id": "Camping_littoral.158", "IDENTIFIAN": 468, "DENOMINATI": "Camping Koat Mor", "STRUCTURE": "CLASS", "CLASSEMENT": "3 étoiles", "CAPACITE": "95", "CAPACITE0": "Places", "CREATION": null, "ADRESSE": "Bois de Pleuven", "LIEU_DIT": null, "COMMUNE": "Saint-Yvi", "INSEE": "29272", "DEPARTEMEN": "29" }, "geometry": { "type": "Point", "coordinates": [ -3.962323872630449, 47.950496926861518 ] }}
{"properties": { "gml_id": "Camping_littoral.159", "IDENTIFIAN": 469, "DENOMINATI": "Aire naturelle de Kerguivit", "STRUCTURE": "TOUNA", "CLASSEMENT": null, "CAPACITE": "12", "CAPACITE0": "Places", "CREATION": null, "ADRESSE": null, "LIEU_DIT": null, "COMMUNE": "POULDREUZIC", "INSEE": "29225", "DEPARTEMEN": "29" }, "geometry": { "type": "Point", "coordinates": [ -4.380320136480557, 47.946698986598804 ] }}
{"properties": { "gml_id": "Camping_littoral.16", "IDENTIFIAN": 223, "DENOMINATI": "Camping Municipal du Roz", "STRUCTURE": "CLASS", "CLASSEMENT": "2 étoiles", "CAPACITE": "62", "CAPACITE0": "Places", "CREATION": null, "ADRESSE": "Anse du Roz", "LIEU_DIT": null, "COMMUNE": "Logonna-Daoulas", "INSEE": "29137", "DEPARTEMEN": "29" }, "geometry": { "type": "Point", "coordinates": [ -4.319327203236221, 48.321220633405133 ] }}
{"properties": { "gml_id": "Camping_littoral.160", "IDENTIFIAN": 227, "DENOMINATI": "Camping Municipal de Camfrout", "STRUCTURE": "CLASS", "CLASSEMENT": "2 étoiles", "CAPACITE": "55", "CAPACITE0": "Places", "CREATION": null, "ADRESSE": "Place de Camfrout", "LIEU_DIT": null, "COMMUNE": "Le Relecq Kerhuon", "INSEE": "29235", "DEPARTEMEN": "29" }, "geometry": { "type": "Point", "coordinates": [ -4.396284512925862, 48.398643831164364 ] }}
{"properties": { "gml_id": "Camping_littoral.161", "IDENTIFIAN": 228, "DENOMINATI": "Camping Municipal de Pont Ar Gler", "STRUCTURE": "CLASS", "CLASSEMENT": "2 étoiles", "CAPACITE": "34", "CAPACITE0": "Places", "CREATION": null, "ADRESSE": "Pont ar Gler", "LIEU_DIT": null, "COMMUNE": "Saint-Jean-du-Doigt", "INSEE": "29251", "DEPARTEMEN": "29" }, "geometry": { "type": "Point", "coordinates": [ -3.775536968029335, 48.693826345501634 ] }}
{"properties": { "gml_id": "Camping_littoral.162", "IDENTIFIAN": 229, "DENOMINATI": "Camping Municipal de Saint Pabu", "STRUCTURE": "CLASS", "CLASSEMENT": "2 étoiles", "CAPACITE": "104", "CAPACITE0": "Places", "CREATION": null, "ADRESSE": "89 rue Corn ar Gazel", "LIEU_DIT": null, "COMMUNE": "Saint-Pabu", "INSEE": "29257", "DEPARTEMEN": "29" }, "geometry": { "type": "Point", "coordinates": [ -4.629317497982555, 48.575930739223367 ] }}
{"properties": { "gml_id": "Camping_littoral.163", "IDENTIFIAN": 230, "DENOMINATI": "Camping Le Merlot", "STRUCTURE": "CLASS", "CLASSEMENT": "2 étoiles", "CAPACITE": "125", "CAPACITE0": "Places", "CREATION": null, "ADRESSE": "Le Merlot", "LIEU_DIT": null, "COMMUNE": "Treffiagat", "INSEE": "29284", "DEPARTEMEN": "29" }, "geometry": { "type": "Point", "coordinates": [ -4.25254468898898, 47.805452926411263 ] }}
{"properties": { "gml_id": "Camping_littoral.164", "IDENTIFIAN": 231, "DENOMINATI": "Camping Municipal de Ker Emma", "STRUCTURE": "CLASS", "CLASSEMENT": "2 étoiles", "CAPACITE": "200", "CAPACITE0": "Places", "CREATION": null, "ADRESSE": "La Sablière", "LIEU_DIT": null, "COMMUNE": "Tréflez", "INSEE": "29287", "DEPARTEMEN": "29" }, "geometry": { "type": "Point", "coordinates": [ -4.278362860213788, 48.640758315453773 ] }}
{"properties": { "gml_id": "Camping_littoral.165", "IDENTIFIAN": 232, "DENOMINATI": "Camping Municipal de Kergoff", "STRUCTURE": "CLASS", "CLASSEMENT": "2 étoiles", "CAPACITE": "35", "CAPACITE0": "Places", "CREATION": null, "ADRESSE": "Hent Kergoff", "LIEU_DIT": null, "COMMUNE": "Plomelin", "INSEE": "29170", "DEPARTEMEN": "29" }, "geometry": { "type": "Point", "coordinates": [ -4.156514091592592, 47.93815101958166 ] }}
{"properties": { "gml_id": "Camping_littoral.166", "IDENTIFIAN": 233, "DENOMINATI": "Camping de la Plage Loc'h Ven", "STRUCTURE": "CLASS", "CLASSEMENT": "2 étoiles", "CAPACITE": "199", "CAPACITE0": "Places", "CREATION": null, "ADRESSE": "Plage de Pendruc", "LIEU_DIT": null, "COMMUNE": "Trégunc", "INSEE": "29293", "DEPARTEMEN": "29" }, "geometry": { "type": "Point", "coordinates": [ -3.890072415755917, 47.832974045939338 ] }}
{"properties": { "gml_id": "Camping_littoral.167", "IDENTIFIAN": 234, "DENOMINATI": "Camping Municipal Le Sillon", "STRUCTURE": "CLASS", "CLASSEMENT": "2 étoiles", "CAPACITE": "137", "CAPACITE0": "Places", "CREATION": null, "ADRESSE": "23 avenue des sports", "LIEU_DIT": null, "COMMUNE": "Ile-Tudy", "INSEE": "29085", "DEPARTEMEN": "29" }, "geometry": { "type": "Point", "coordinates": [ -4.161715715946796, 47.849875048235802 ] }}
{"properties": { "gml_id": "Camping_littoral.168", "IDENTIFIAN": 235, "DENOMINATI": "Domaine de Bel Air", "STRUCTURE": "CLASS", "CLASSEMENT": "4 étoiles", "CAPACITE": "197", "CAPACITE0": "Places", "CREATION": null, "ADRESSE": null, "LIEU_DIT": null, "COMMUNE": "Landudec", "INSEE": "29108", "DEPARTEMEN": "29" }, "geometry": { "type": "Point", "coordinates": [ -4.352504000670752, 47.991045230313397 ] }}
{"properties": { "gml_id": "Camping_littoral.169", "IDENTIFIAN": 236, "DENOMINATI": "Camping du Centre Nautique", "STRUCTURE": "CLASS", "CLASSEMENT": "1 étoile", "CAPACITE": "16", "CAPACITE0": "Places", "CREATION": null, "ADRESSE": "Plage de Trez Bellec", "LIEU_DIT": null, "COMMUNE": "Telgruc-sur-Mer", "INSEE": "29280", "DEPARTEMEN": "29" }, "geometry": { "type": "Point", "coordinates": [ -4.367378215039018, 48.210343033343101 ] }}
{"properties": { "gml_id": "Camping_littoral.17", "IDENTIFIAN": 224, "DENOMINATI": "Camping Municipal de Toul Ar Ster", "STRUCTURE": "CLASS", "CLASSEMENT": "2 étoiles", "CAPACITE": "205", "CAPACITE0": "Places", "CREATION": null, "ADRESSE": "Toul ar Ster", "LIEU_DIT": null, "COMMUNE": "Penmarch", "INSEE": "29158", "DEPARTEMEN": "29" }, "geometry": { "type": "Point", "coordinates": [ -4.332518711342203, 47.80041616828094 ] }}
{"properties": { "gml_id": "Camping_littoral.170", "IDENTIFIAN": 237, "DENOMINATI": "Camping de Larenvoie", "STRUCTURE": "CLASS", "CLASSEMENT": "2 étoiles", "CAPACITE": "75", "CAPACITE0": "Places", "CREATION": null, "ADRESSE": "Larenvoie", "LIEU_DIT": null, "COMMUNE": "Plouhinec", "INSEE": "29197", "DEPARTEMEN": "29" }, "geometry": { "type": "Point", "coordinates": [ -4.523925802759957, 48.017022662752275 ] }}
{"properties": { "gml_id": "Camping_littoral.171", "IDENTIFIAN": 238, "DENOMINATI": "Camping Municipal de Kervian", "STRUCTURE": "CLASS", "CLASSEMENT": "2 étoiles", "CAPACITE": "52", "CAPACITE0": "Places", "CREATION": null, "ADRESSE": "Route du camping", "LIEU_DIT": null, "COMMUNE": "Roscanvel", "INSEE": "29238", "DEPARTEMEN": "29" }, "geometry": { "type": "Point", "coordinates": [ -4.559329417383339, 48.308639294158084 ] }}
{"properties": { "gml_id": "Camping_littoral.172", "IDENTIFIAN": 239, "DENOMINATI": "Camping de Ty Rouz", "STRUCTURE": "CLASS", "CLASSEMENT": "3 étoiles", "CAPACITE": "25", "CAPACITE0": "Places", "CREATION": null, "ADRESSE": "Ty Rouz", "LIEU_DIT": null, "COMMUNE": "Plomodiern", "INSEE": "29172", "DEPARTEMEN": "29" }, "geometry": { "type": "Point", "coordinates": [ -4.283424709796064, 48.172315422213437 ] }}
{"properties": { "gml_id": "Camping_littoral.173", "IDENTIFIAN": 240, "DENOMINATI": "Camping de Pen Bellec", "STRUCTURE": "CLASS", "CLASSEMENT": "2 étoiles", "CAPACITE": "45", "CAPACITE0": "Places", "CREATION": null, "ADRESSE": null, "LIEU_DIT": null, "COMMUNE": "Telgruc-sur-Mer", "INSEE": "29280", "DEPARTEMEN": "29" }, "geometry": { "type": "Point", "coordinates": [ -4.368917594494535, 48.210744066873232 ] }}
{"properties": { "gml_id": "Camping_littoral.174", "IDENTIFIAN": 241, "DENOMINATI": "Camping Tal Ar Mor", "STRUCTURE": "CLASS", "CLASSEMENT": "2 étoiles", "CAPACITE": "50", "CAPACITE0": "Places", "CREATION": null, "ADRESSE": "Kerlaudy", "LIEU_DIT": "Pont de la Corde", "COMMUNE": "Plouénan", "INSEE": "29184", "DEPARTEMEN": "29" }, "geometry": { "type": "Point", "coordinates": [ -3.957752842407839, 48.645466438865029 ] }}
{"properties": { "gml_id": "Camping_littoral.175", "IDENTIFIAN": 242, "DENOMINATI": "Camping le Domaine de Dourdy", "STRUCTURE": "CLASS", "CLASSEMENT": "2 étoiles", "CAPACITE": "110", "CAPACITE0": "Places", "CREATION": null, "ADRESSE": null, "LIEU_DIT": null, "COMMUNE": "Loctudy", "INSEE": "29135", "DEPARTEMEN": "29" }, "geometry": { "type": "Point", "coordinates": [ -4.189755265642555, 47.841841360740446 ] }}
{"properties": { "gml_id": "Camping_littoral.176", "IDENTIFIAN": 243, "DENOMINATI": "Camping Municipal de Kermaléro", "STRUCTURE": "CLASS", "CLASSEMENT": "2 étoiles", "CAPACITE": "75", "CAPACITE0": "Places", "CREATION": null, "ADRESSE": null, "LIEU_DIT": null, "COMMUNE": "Primelin", "INSEE": "29228", "DEPARTEMEN": "29" }, "geometry": { "type": "Point", "coordinates": [ -4.617790148625283, 48.024662233230728 ] }}
{"properties": { "gml_id": "Camping_littoral.177", "IDENTIFIAN": 244, "DENOMINATI": "Camping de Lanven", "STRUCTURE": "CLASS", "CLASSEMENT": "2 étoiles", "CAPACITE": "141", "CAPACITE0": "Places", "CREATION": null, "ADRESSE": "La chapelle de Beuzec", "LIEU_DIT": null, "COMMUNE": "Plomeur", "INSEE": "29171", "DEPARTEMEN": "29" }, "geometry": { "type": "Point", "coordinates": [ -4.306919628739451, 47.854777870398813 ] }}
{"properties": { "gml_id": "Camping_littoral.178", "IDENTIFIAN": 245, "DENOMINATI": "Camping Kerneuc", "STRUCTURE": "CLASS", "CLASSEMENT": "2 étoiles", "CAPACITE": "80", "CAPACITE0": "Places", "CREATION": null, "ADRESSE": "11 chemin de kerneuc", "LIEU_DIT": "Mousterlin", "COMMUNE": "Fouesnant", "INSEE": "29058", "DEPARTEMEN": "29" }, "geometry": { "type": "Point", "coordinates": [ -4.043798969886093, 47.853520227143186 ] }}
{"properties": { "gml_id": "Camping_littoral.179", "IDENTIFIAN": 246, "DENOMINATI": "Camping de Cornouaille", "STRUCTURE": "CLASS", "CLASSEMENT": "2 étoiles", "CAPACITE": "80", "CAPACITE0": "Places", "CREATION": null, "ADRESSE": "Kersuot", "LIEU_DIT": null, "COMMUNE": "Plozévet", "INSEE": "29215", "DEPARTEMEN": "29" }, "geometry": { "type": "Point", "coordinates": [ -4.400105425842733, 47.979537102453783 ] }}
{"properties": { "gml_id": "Camping_littoral.18", "IDENTIFIAN": 225, "DENOMINATI": "Camping Municipal du Bois de la Palud", "STRUCTURE": "CLASS", "CLASSEMENT": "2 étoiles", "CAPACITE": "34", "CAPACITE0": "Places", "CREATION": null, "ADRESSE": "Bois de la Palud", "LIEU_DIT": null, "COMMUNE": "Plougoulm", "INSEE": "29192", "DEPARTEMEN": "29" }, "geometry": { "type": "Point", "coordinates": [ -4.053777288898803, 48.672582184839676 ] }}
{"properties": { "gml_id": "Camping_littoral.180", "IDENTIFIAN": 247, "DENOMINATI": "Camping de Roguennic", "STRUCTURE": "CLASS", "CLASSEMENT": "2 étoiles", "CAPACITE": "300", "CAPACITE0": "Places", "CREATION": null, "ADRESSE": "Roguennic", "LIEU_DIT": null, "COMMUNE": "Cléder", "INSEE": "29030", "DEPARTEMEN": "29" }, "geometry": { "type": "Point", "coordinates": [ -4.141171183585124, 48.691090881921511 ] }}
{"properties": { "gml_id": "Camping_littoral.181", "IDENTIFIAN": 248, "DENOMINATI": "Camping Municipal de Poulennou", "STRUCTURE": "CLASS", "CLASSEMENT": "1 étoile", "CAPACITE": "80", "CAPACITE0": "Places", "CREATION": null, "ADRESSE": "Poulennou", "LIEU_DIT": null, "COMMUNE": "Cléder", "INSEE": "29030", "DEPARTEMEN": "29" }, "geometry": { "type": "Point", "coordinates": [ -4.120587611653812, 48.691526642106538 ] }}
{"properties": { "gml_id": "Camping_littoral.182", "IDENTIFIAN": 249, "DENOMINATI": "Aire naturelle La Source", "STRUCTURE": "TOUNA", "CLASSEMENT": null, "CAPACITE": "25", "CAPACITE0": "Places", "CREATION": null, "ADRESSE": "Trohinel", "LIEU_DIT": null, "COMMUNE": "Plozévet", "INSEE": "29215", "DEPARTEMEN": "29" }, "geometry": { "type": "Point", "coordinates": [ -4.396965140895511, 47.984593849239964 ] }}
{"properties": { "gml_id": "Camping_littoral.183", "IDENTIFIAN": 250, "DENOMINATI": "Camping de Kergall", "STRUCTURE": "CLASS", "CLASSEMENT": "2 étoiles", "CAPACITE": "99", "CAPACITE0": "Places", "CREATION": null, "ADRESSE": "Boulevard de la Mer", "LIEU_DIT": null, "COMMUNE": "Loctudy", "INSEE": "29135", "DEPARTEMEN": "29" }, "geometry": { "type": "Point", "coordinates": [ -4.164219253476727, 47.827701399976128 ] }}
{"properties": { "gml_id": "Camping_littoral.184", "IDENTIFIAN": 251, "DENOMINATI": "Camping Fleuri", "STRUCTURE": "CLASS", "CLASSEMENT": "2 étoiles", "CAPACITE": "50", "CAPACITE0": "Places", "CREATION": null, "ADRESSE": "route de Névez", "LIEU_DIT": null, "COMMUNE": "Trégunc", "INSEE": "29293", "DEPARTEMEN": "29" }, "geometry": { "type": "Point", "coordinates": [ -3.801070038215426, 47.829162158539091 ] }}
{"properties": { "gml_id": "Camping_littoral.185", "IDENTIFIAN": 252, "DENOMINATI": "Aire naturelle de Keraluic", "STRUCTURE": "TOUNA", "CLASSEMENT": null, "CAPACITE": "25", "CAPACITE0": "Places", "CREATION": null, "ADRESSE": "Keraluic", "LIEU_DIT": null, "COMMUNE": "Plomeur", "INSEE": "29171", "DEPARTEMEN": "29" }, "geometry": { "type": "Point", "coordinates": [ -4.266971426373786, 47.861543023016552 ] }}
{"properties": { "gml_id": "Camping_littoral.186", "IDENTIFIAN": 253, "DENOMINATI": "Aire naturelle de Kéryel", "STRUCTURE": "TOUNA", "CLASSEMENT": "3 épis", "CAPACITE": "25", "CAPACITE0": "Places", "CREATION": null, "ADRESSE": "Kéryel", "LIEU_DIT": null, "COMMUNE": "Plougonvelin", "INSEE": "29190", "DEPARTEMEN": "29" }, "geometry": { "type": "Point", "coordinates": [ -4.741836208723615, 48.344928850922663 ] }}
{"properties": { "gml_id": "Camping_littoral.187", "IDENTIFIAN": 254, "DENOMINATI": "Camping de Kerven", "STRUCTURE": "CLASS", "CLASSEMENT": "1 étoile", "CAPACITE": "45", "CAPACITE0": "Places", "CREATION": null, "ADRESSE": "Kerven", "LIEU_DIT": "Le Diben", "COMMUNE": "Plougasnou", "INSEE": "29188", "DEPARTEMEN": "29" }, "geometry": { "type": "Point", "coordinates": [ -3.834882526322993, 48.701920648700153 ] }}
{"properties": { "gml_id": "Camping_littoral.188", "IDENTIFIAN": 255, "DENOMINATI": "Camping  les Tamaris", "STRUCTURE": "CLASS", "CLASSEMENT": "2 étoiles", "CAPACITE": "65", "CAPACITE0": "Places", "CREATION": null, "ADRESSE": "Pentrez Plage", "LIEU_DIT": null, "COMMUNE": "Saint-Nic", "INSEE": "29256", "DEPARTEMEN": "29" }, "geometry": { "type": "Point", "coordinates": [ -4.300528368543476, 48.192479971331785 ] }}
{"properties": { "gml_id": "Camping_littoral.189", "IDENTIFIAN": 256, "DENOMINATI": "Camping du Cosquer Névez", "STRUCTURE": "CLASS", "CLASSEMENT": "2 étoiles", "CAPACITE": "40", "CAPACITE0": "Places", "CREATION": null, "ADRESSE": "Hent Cleut Rouz", "LIEU_DIT": null, "COMMUNE": "Fouesnant", "INSEE": "29058", "DEPARTEMEN": "29" }, "geometry": { "type": "Point", "coordinates": [ -4.025807924559365, 47.858705152431192 ] }}
{"properties": { "gml_id": "Camping_littoral.19", "IDENTIFIAN": 226, "DENOMINATI": "Camping Municipal des Dunes", "STRUCTURE": "CLASS", "CLASSEMENT": "1 étoile", "CAPACITE": "180", "CAPACITE0": "Places", "CREATION": null, "ADRESSE": "Créach Guen", "LIEU_DIT": null, "COMMUNE": "Porspoder", "INSEE": "29221", "DEPARTEMEN": "29" }, "geometry": { "type": "Point", "coordinates": [ -4.767677420503271, 48.513883677735585 ] }}
{"properties": { "gml_id": "Camping_littoral.190", "IDENTIFIAN": 257, "DENOMINATI": "Camping municipal Pen ar Bed", "STRUCTURE": "CLASS", "CLASSEMENT": "2 étoiles", "CAPACITE": "100", "CAPACITE0": "Places", "CREATION": null, "ADRESSE": "Stang ar Glan", "LIEU_DIT": null, "COMMUNE": "Ouessant", "INSEE": "29155", "DEPARTEMEN": "29" }, "geometry": { "type": "Point", "coordinates": [ -5.090748724348104, 48.458815609262778 ] }}
{"properties": { "gml_id": "Camping_littoral.191", "IDENTIFIAN": 258, "DENOMINATI": "Camping vert de Lanniouarn", "STRUCTURE": "CLASS", "CLASSEMENT": "1 étoile", "CAPACITE": "25", "CAPACITE0": "Places", "CREATION": null, "ADRESSE": "Caletour", "LIEU_DIT": null, "COMMUNE": "Plouarzel", "INSEE": "29177", "DEPARTEMEN": "29" }, "geometry": { "type": "Point", "coordinates": [ -4.709454931613655, 48.449926885210239 ] }}
{"properties": { "gml_id": "Camping_littoral.192", "IDENTIFIAN": 259, "DENOMINATI": "Camping le Rugunay", "STRUCTURE": "CLASS", "CLASSEMENT": "2 étoiles", "CAPACITE": "99", "CAPACITE0": "Places", "CREATION": null, "ADRESSE": null, "LIEU_DIT": null, "COMMUNE": "Locquirec", "INSEE": "29133", "DEPARTEMEN": "29" }, "geometry": { "type": "Point", "coordinates": [ -3.651094777424081, 48.676410757925723 ] }}
{"properties": { "gml_id": "Camping_littoral.193", "IDENTIFIAN": 260, "DENOMINATI": "Camping Municipal de Langoz", "STRUCTURE": "CLASS", "CLASSEMENT": "2 étoiles", "CAPACITE": "85", "CAPACITE0": "Places", "CREATION": null, "ADRESSE": "boulevard de la mer", "LIEU_DIT": "rue de Langoz", "COMMUNE": "Loctudy", "INSEE": "29135", "DEPARTEMEN": "29" }, "geometry": { "type": "Point", "coordinates": [ -4.163373035521004, 47.828435141307331 ] }}
{"properties": { "gml_id": "Camping_littoral.194", "IDENTIFIAN": 261, "DENOMINATI": "Camping municipal des Etangs", "STRUCTURE": "CLASS", "CLASSEMENT": "2 étoiles", "CAPACITE": "100", "CAPACITE0": "Places", "CREATION": null, "ADRESSE": "Mesquéau", "LIEU_DIT": null, "COMMUNE": "Plougasnou", "INSEE": "29188", "DEPARTEMEN": "29" }, "geometry": { "type": "Point", "coordinates": [ -3.779205470010434, 48.66569210736391 ] }}
{"properties": { "gml_id": "Camping_littoral.195", "IDENTIFIAN": 262, "DENOMINATI": "Camping municipal de Saint-Gonvel", "STRUCTURE": "CLASS", "CLASSEMENT": "1 étoile", "CAPACITE": "133", "CAPACITE0": "Places", "CREATION": null, "ADRESSE": "Argenton", "LIEU_DIT": null, "COMMUNE": "Landunvez", "INSEE": "29109", "DEPARTEMEN": "29" }, "geometry": { "type": "Point", "coordinates": [ -4.759294953129138, 48.527288120761497 ] }}
{"properties": { "gml_id": "Camping_littoral.196", "IDENTIFIAN": 263, "DENOMINATI": "Camping Gîte VVF Villages", "STRUCTURE": "CLASS", "CLASSEMENT": "2 étoiles", "CAPACITE": "48", "CAPACITE0": "Places", "CREATION": null, "ADRESSE": "Ar Menez", "LIEU_DIT": null, "COMMUNE": "Argol", "INSEE": "29001", "DEPARTEMEN": "29" }, "geometry": { "type": "Point", "coordinates": [ -4.311212060051991, 48.233564933770502 ] }}
{"properties": { "gml_id": "Camping_littoral.197", "IDENTIFIAN": 264, "DENOMINATI": "Camping de Kerivoas", "STRUCTURE": "CLASS", "CLASSEMENT": "2 étoiles", "CAPACITE": "20", "CAPACITE0": "Places", "CREATION": null, "ADRESSE": "Route de la Pointe du Raz", "LIEU_DIT": null, "COMMUNE": "Audierne", "INSEE": "29003", "DEPARTEMEN": "29" }, "geometry": { "type": "Point", "coordinates": [ -4.557396556164766, 48.028156084398951 ] }}
{"properties": { "gml_id": "Camping_littoral.198", "IDENTIFIAN": 265, "DENOMINATI": "Camping les Nymphéas", "STRUCTURE": "CLASS", "CLASSEMENT": "2 étoiles", "CAPACITE": "47", "CAPACITE0": "Places", "CREATION": null, "ADRESSE": "Entrée Brignogan Plages", "LIEU_DIT": null, "COMMUNE": "Plounéour-Trez", "INSEE": "29203", "DEPARTEMEN": "29" }, "geometry": { "type": "Point", "coordinates": [ -4.32873310099491, 48.657589040115191 ] }}
{"properties": { "gml_id": "Camping_littoral.199", "IDENTIFIAN": 266, "DENOMINATI": "Aire naturelle les Hortensias", "STRUCTURE": "TOUNA", "CLASSEMENT": null, "CAPACITE": "25", "CAPACITE0": "Places", "CREATION": null, "ADRESSE": "Kermen", "LIEU_DIT": null, "COMMUNE": "Carantec", "INSEE": "29023", "DEPARTEMEN": "29" }, "geometry": { "type": "Point", "coordinates": [ -3.920991383543565, 48.649724644594876 ] }}
{"properties": { "gml_id": "Camping_littoral.2", "IDENTIFIAN": 209, "DENOMINATI": "Camping les Vergers de Squividan", "STRUCTURE": "CLASS", "CLASSEMENT": "2 étoiles", "CAPACITE": "40", "CAPACITE0": "Places", "CREATION": null, "ADRESSE": "Squividan", "LIEU_DIT": null, "COMMUNE": "Treffiagat", "INSEE": "29284", "DEPARTEMEN": "29" }, "geometry": { "type": "Point", "coordinates": [ -4.247335611172349, 47.796254719451134 ] }}
{"properties": { "gml_id": "Camping_littoral.20", "IDENTIFIAN": 330, "DENOMINATI": "Camping du Phare", "STRUCTURE": "CLASS", "CLASSEMENT": "2 étoiles", "CAPACITE": "144", "CAPACITE0": "Places", "CREATION": null, "ADRESSE": "plage du Phare", "LIEU_DIT": null, "COMMUNE": "Brignogan-Plages", "INSEE": "29021", "DEPARTEMEN": "29" }, "geometry": { "type": "Point", "coordinates": [ -4.347578360062426, 48.67546490153547 ] }}
{"properties": { "gml_id": "Camping_littoral.200", "IDENTIFIAN": 267, "DENOMINATI": "Camping la Pointe Superbe", "STRUCTURE": "CLASS", "CLASSEMENT": "3 étoiles", "CAPACITE": "60", "CAPACITE0": "Places", "CREATION": null, "ADRESSE": "route de Châteaulin", "LIEU_DIT": null, "COMMUNE": "Saint-Coulitz", "INSEE": "29243", "DEPARTEMEN": "29" }, "geometry": { "type": "Point", "coordinates": [ -4.086005581690171, 48.185550813482777 ] }}
{"properties": { "gml_id": "Camping_littoral.201", "IDENTIFIAN": 268, "DENOMINATI": "Camping le Kergariou", "STRUCTURE": "CLASS", "CLASSEMENT": "2 étoiles", "CAPACITE": "100", "CAPACITE0": "Places", "CREATION": null, "ADRESSE": "Route de Doëlan", "LIEU_DIT": null, "COMMUNE": "Clohars-Carnoët", "INSEE": "29031", "DEPARTEMEN": "29" }, "geometry": { "type": "Point", "coordinates": [ -3.588365051362024, 47.783389821281517 ] }}
{"properties": { "gml_id": "Camping_littoral.202", "IDENTIFIAN": 269, "DENOMINATI": "Camping le Vieux Four", "STRUCTURE": "CLASS", "CLASSEMENT": "2 étoiles", "CAPACITE": "50", "CAPACITE0": "Places", "CREATION": null, "ADRESSE": "Le Pouldu", "LIEU_DIT": null, "COMMUNE": "Clohars-Carnoët", "INSEE": "29031", "DEPARTEMEN": "29" }, "geometry": { "type": "Point", "coordinates": [ -3.546664590761881, 47.771896895349386 ] }}
{"properties": { "gml_id": "Camping_littoral.203", "IDENTIFIAN": 270, "DENOMINATI": "Camping le Hellès", "STRUCTURE": "CLASS", "CLASSEMENT": "2 étoiles", "CAPACITE": "138", "CAPACITE0": "Places", "CREATION": null, "ADRESSE": "55 rue du petit bourg", "LIEU_DIT": "Sainte Marine", "COMMUNE": "Combrit", "INSEE": "29037", "DEPARTEMEN": "29" }, "geometry": { "type": "Point", "coordinates": [ -4.128358477779997, 47.867918782899572 ] }}
{"properties": { "gml_id": "Camping_littoral.204", "IDENTIFIAN": 271, "DENOMINATI": "Camping Menez-Lanveur", "STRUCTURE": "CLASS", "CLASSEMENT": "2 étoiles", "CAPACITE": "80", "CAPACITE0": "Places", "CREATION": null, "ADRESSE": "Menez-Lanveur", "LIEU_DIT": null, "COMMUNE": "Combrit", "INSEE": "29037", "DEPARTEMEN": "29" }, "geometry": { "type": "Point", "coordinates": [ -4.156328305603769, 47.868571916145086 ] }}
{"properties": { "gml_id": "Camping_littoral.205", "IDENTIFIAN": 272, "DENOMINATI": "Camping les Sables Blancs", "STRUCTURE": "CLASS", "CLASSEMENT": "3 étoiles", "CAPACITE": "149", "CAPACITE0": "Places", "CREATION": null, "ADRESSE": "Plage des Sables Blancs", "LIEU_DIT": null, "COMMUNE": "Concarneau", "INSEE": "29039", "DEPARTEMEN": "29" }, "geometry": { "type": "Point", "coordinates": [ -3.92769743410731, 47.881444184704506 ] }}
{"properties": { "gml_id": "Camping_littoral.206", "IDENTIFIAN": 273, "DENOMINATI": "Camping les Pins", "STRUCTURE": "CLASS", "CLASSEMENT": "3 étoiles", "CAPACITE": "155", "CAPACITE0": "Places", "CREATION": null, "ADRESSE": "Route de Dinan", "LIEU_DIT": null, "COMMUNE": "Crozon", "INSEE": "29042", "DEPARTEMEN": "29" }, "geometry": { "type": "Point", "coordinates": [ -4.517898753379522, 48.236554632455778 ] }}
{"properties": { "gml_id": "Camping_littoral.207", "IDENTIFIAN": 274, "DENOMINATI": "Camping la Plage de Goulien", "STRUCTURE": "CLASS", "CLASSEMENT": "3 étoiles", "CAPACITE": "126", "CAPACITE0": "Places", "CREATION": null, "ADRESSE": "Kernavéno", "LIEU_DIT": null, "COMMUNE": "Crozon", "INSEE": "29042", "DEPARTEMEN": "29" }, "geometry": { "type": "Point", "coordinates": [ -4.543262821615267, 48.239066851404573 ] }}
{"properties": { "gml_id": "Camping_littoral.208", "IDENTIFIAN": 275, "DENOMINATI": "Camping le Panoramic", "STRUCTURE": "CLASS", "CLASSEMENT": "4 étoiles", "CAPACITE": "200", "CAPACITE0": "Places", "CREATION": null, "ADRESSE": "Route de la Plage", "LIEU_DIT": "Le Penquer", "COMMUNE": "Telgruc-sur-Mer", "INSEE": "29280", "DEPARTEMEN": "29" }, "geometry": { "type": "Point", "coordinates": [ -4.373508317608828, 48.224270600824099 ] }}
{"properties": { "gml_id": "Camping_littoral.209", "IDENTIFIAN": 276, "DENOMINATI": "Camping Municipal de Portez", "STRUCTURE": "CLASS", "CLASSEMENT": "2 étoiles", "CAPACITE": "100", "CAPACITE0": "Places", "CREATION": null, "ADRESSE": "Plage de Portez", "LIEU_DIT": null, "COMMUNE": "Locmaria-Plouzané", "INSEE": "29130", "DEPARTEMEN": "29" }, "geometry": { "type": "Point", "coordinates": [ -4.670622493562171, 48.356195885440073 ] }}
{"properties": { "gml_id": "Camping_littoral.21", "IDENTIFIAN": 331, "DENOMINATI": "Camping Yelloh ! Village les Mouettes", "STRUCTURE": "CLASS", "CLASSEMENT": "4 étoiles", "CAPACITE": "400", "CAPACITE0": "Places", "CREATION": null, "ADRESSE": "La Grande Grève", "LIEU_DIT": null, "COMMUNE": "Carantec", "INSEE": "29023", "DEPARTEMEN": "29" }, "geometry": { "type": "Point", "coordinates": [ -3.930510278292632, 48.656409433737039 ] }}
{"properties": { "gml_id": "Camping_littoral.210", "IDENTIFIAN": 277, "DENOMINATI": "Camping Kersioual", "STRUCTURE": "CLASS", "CLASSEMENT": "2 étoiles", "CAPACITE": "180", "CAPACITE0": "Places", "CREATION": null, "ADRESSE": "12 route de Menez-Moor", "LIEU_DIT": null, "COMMUNE": "La Forêt-Fouesnant", "INSEE": "29057", "DEPARTEMEN": "29" }, "geometry": { "type": "Point", "coordinates": [ -3.964078148406756, 47.899653817375579 ] }}
{"properties": { "gml_id": "Camping_littoral.211", "IDENTIFIAN": 278, "DENOMINATI": "Camping de la Plage", "STRUCTURE": "CLASS", "CLASSEMENT": "2 étoiles", "CAPACITE": "60", "CAPACITE0": "Places", "CREATION": null, "ADRESSE": "5 rue de Port la Forêt", "LIEU_DIT": null, "COMMUNE": "La Forêt-Fouesnant (La)", "INSEE": "29057", "DEPARTEMEN": "29" }, "geometry": { "type": "Point", "coordinates": [ -3.967083060309898, 47.89733837041944 ] }}
{"properties": { "gml_id": "Camping_littoral.212", "IDENTIFIAN": 279, "DENOMINATI": "Camping de Ponterec", "STRUCTURE": "CLASS", "CLASSEMENT": "2 étoiles", "CAPACITE": "125", "CAPACITE0": "Places", "CREATION": null, "ADRESSE": "Ponterec", "LIEU_DIT": null, "COMMUNE": "La Forêt-Fouesnant (La)", "INSEE": "29057", "DEPARTEMEN": "29" }, "geometry": { "type": "Point", "coordinates": [ -3.995610507897572, 47.904341091986538 ] }}
{"properties": { "gml_id": "Camping_littoral.213", "IDENTIFIAN": 280, "DENOMINATI": "Camping les Hortensias", "STRUCTURE": "CLASS", "CLASSEMENT": "2 étoiles", "CAPACITE": "120", "CAPACITE0": "Places", "CREATION": null, "ADRESSE": "La Grande Allée", "LIEU_DIT": "route de Mousterlin", "COMMUNE": "Fouesnant", "INSEE": "29058", "DEPARTEMEN": "29" }, "geometry": { "type": "Point", "coordinates": [ -4.01793636242766, 47.880943730860785 ] }}
{"properties": { "gml_id": "Camping_littoral.214", "IDENTIFIAN": 281, "DENOMINATI": "Camping Les Mimosas", "STRUCTURE": "CLASS", "CLASSEMENT": "2 étoiles", "CAPACITE": "81", "CAPACITE0": "Places", "CREATION": null, "ADRESSE": "Descente du Cap Coz", "LIEU_DIT": null, "COMMUNE": "Fouesnant", "INSEE": "29058", "DEPARTEMEN": "29" }, "geometry": { "type": "Point", "coordinates": [ -3.997569358063275, 47.8909190531175 ] }}
{"properties": { "gml_id": "Camping_littoral.215", "IDENTIFIAN": 282, "DENOMINATI": "Camping à la Ferme du Bois de la Roche", "STRUCTURE": "CAMFE", "CLASSEMENT": null, "CAPACITE": "8", "CAPACITE0": "Places", "CREATION": null, "ADRESSE": "Ferme de Keroyal", "LIEU_DIT": "Le Bois de la Roche", "COMMUNE": "Garlan", "INSEE": "29059", "DEPARTEMEN": "29" }, "geometry": { "type": "Point", "coordinates": [ -3.767203101373774, 48.616251507408606 ] }}
{"properties": { "gml_id": "Camping_littoral.216", "IDENTIFIAN": 283, "DENOMINATI": "Camping Municipal de Penn Enez", "STRUCTURE": "CLASS", "CLASSEMENT": "1 étoile", "CAPACITE": "100", "CAPACITE0": "Places", "CREATION": null, "ADRESSE": "551 Dunes de Penn Enez", "LIEU_DIT": null, "COMMUNE": "Landéda", "INSEE": "29101", "DEPARTEMEN": "29" }, "geometry": { "type": "Point", "coordinates": [ -4.598163650516999, 48.603432514612422 ] }}
{"properties": { "gml_id": "Camping_littoral.217", "IDENTIFIAN": 284, "DENOMINATI": "Camping du Pâl", "STRUCTURE": "CLASS", "CLASSEMENT": "1 étoile", "CAPACITE": "20", "CAPACITE0": "Places", "CREATION": null, "ADRESSE": "Le Pâl", "LIEU_DIT": null, "COMMUNE": "Landévennec", "INSEE": "29104", "DEPARTEMEN": "29" }, "geometry": { "type": "Point", "coordinates": [ -4.264961891179511, 48.292581806808052 ] }}
{"properties": { "gml_id": "Camping_littoral.218", "IDENTIFIAN": 285, "DENOMINATI": "Camping des Mouettes", "STRUCTURE": "CLASS", "CLASSEMENT": "3 étoiles", "CAPACITE": "68", "CAPACITE0": "Places", "CREATION": null, "ADRESSE": "6 rue Pen-Hador", "LIEU_DIT": null, "COMMUNE": "Loctudy", "INSEE": "29135", "DEPARTEMEN": "29" }, "geometry": { "type": "Point", "coordinates": [ -4.176883179807802, 47.809845368725043 ] }}
{"properties": { "gml_id": "Camping_littoral.219", "IDENTIFIAN": 286, "DENOMINATI": "Camping du Cosquer", "STRUCTURE": "CLASS", "CLASSEMENT": "2 étoiles", "CAPACITE": "30", "CAPACITE0": "Places", "CREATION": null, "ADRESSE": "17 rue du Cosquer", "LIEU_DIT": null, "COMMUNE": "Loctudy", "INSEE": "29135", "DEPARTEMEN": "29" }, "geometry": { "type": "Point", "coordinates": [ -4.192875222877222, 47.801147312558953 ] }}
{"properties": { "gml_id": "Camping_littoral.22", "IDENTIFIAN": 332, "DENOMINATI": "Camping Ty Provost", "STRUCTURE": "CLASS", "CLASSEMENT": "3 étoiles", "CAPACITE": "50", "CAPACITE0": "Places", "CREATION": null, "ADRESSE": null, "LIEU_DIT": null, "COMMUNE": "Dinéault", "INSEE": "29044", "DEPARTEMEN": "29" }, "geometry": { "type": "Point", "coordinates": [ -4.123508769677921, 48.206508803688735 ] }}
{"properties": { "gml_id": "Camping_littoral.220", "IDENTIFIAN": 287, "DENOMINATI": "Camping des Chaumières", "STRUCTURE": "CLASS", "CLASSEMENT": "2 étoiles", "CAPACITE": "110", "CAPACITE0": "Places", "CREATION": null, "ADRESSE": "Hameau de Kerascoët", "LIEU_DIT": null, "COMMUNE": "Névez", "INSEE": "29153", "DEPARTEMEN": "29" }, "geometry": { "type": "Point", "coordinates": [ -3.772864384220482, 47.796721318623135 ] }}
{"properties": { "gml_id": "Camping_littoral.221", "IDENTIFIAN": 288, "DENOMINATI": "Camping les Genêts", "STRUCTURE": "CLASS", "CLASSEMENT": "2 étoiles", "CAPACITE": "97", "CAPACITE0": "Places", "CREATION": null, "ADRESSE": "Route de Saint-Philibert", "LIEU_DIT": null, "COMMUNE": "Névez", "INSEE": "29153", "DEPARTEMEN": "29" }, "geometry": { "type": "Point", "coordinates": [ -3.799375438740837, 47.816424759560192 ] }}
{"properties": { "gml_id": "Camping_littoral.222", "IDENTIFIAN": 289, "DENOMINATI": "Camping de Kéraeren", "STRUCTURE": "CLASS", "CLASSEMENT": "2 étoiles", "CAPACITE": "132", "CAPACITE0": "Places", "CREATION": null, "ADRESSE": "Port-Manech", "LIEU_DIT": null, "COMMUNE": "Névez", "INSEE": "29153", "DEPARTEMEN": "29" }, "geometry": { "type": "Point", "coordinates": [ -3.748073500879713, 47.805510225646074 ] }}
{"properties": { "gml_id": "Camping_littoral.223", "IDENTIFIAN": 290, "DENOMINATI": "Camping le Vieux Verger - Ty Noul", "STRUCTURE": "CLASS", "CLASSEMENT": "2 étoiles", "CAPACITE": "121", "CAPACITE0": "Places", "CREATION": null, "ADRESSE": "Raguénès plage", "LIEU_DIT": null, "COMMUNE": "Névez", "INSEE": "29153", "DEPARTEMEN": "29" }, "geometry": { "type": "Point", "coordinates": [ -3.798819537843467, 47.796813405694039 ] }}
{"properties": { "gml_id": "Camping_littoral.224", "IDENTIFIAN": 291, "DENOMINATI": "Camping le Grand Bleu", "STRUCTURE": "CLASS", "CLASSEMENT": "2 étoiles", "CAPACITE": "96", "CAPACITE0": "Places", "CREATION": null, "ADRESSE": "Plage du Ster", "LIEU_DIT": null, "COMMUNE": "Penmarch", "INSEE": "29158", "DEPARTEMEN": "29" }, "geometry": { "type": "Point", "coordinates": [ -4.327279982033099, 47.799524017693969 ] }}
{"properties": { "gml_id": "Camping_littoral.225", "IDENTIFIAN": 292, "DENOMINATI": "Camping des Dunes", "STRUCTURE": "CLASS", "CLASSEMENT": "3 étoiles", "CAPACITE": "120", "CAPACITE0": "Places", "CREATION": null, "ADRESSE": "67 rue Paul Langevin", "LIEU_DIT": null, "COMMUNE": "Plobannalec-Lesconil", "INSEE": "29165", "DEPARTEMEN": "29" }, "geometry": { "type": "Point", "coordinates": [ -4.228966151322072, 47.796873930199048 ] }}
{"properties": { "gml_id": "Camping_littoral.226", "IDENTIFIAN": 293, "DENOMINATI": "Camping de la Grande Plage", "STRUCTURE": "CLASS", "CLASSEMENT": "3 étoiles", "CAPACITE": "100", "CAPACITE0": "Places", "CREATION": null, "ADRESSE": "71 rue Paul Langevin", "LIEU_DIT": null, "COMMUNE": "Plobannalec-Lesconil", "INSEE": "29165", "DEPARTEMEN": "29" }, "geometry": { "type": "Point", "coordinates": [ -4.229651499762305, 47.797906447128454 ] }}
{"properties": { "gml_id": "Camping_littoral.227", "IDENTIFIAN": 294, "DENOMINATI": "Camping de Keralouet", "STRUCTURE": "CLASS", "CLASSEMENT": "2 étoiles", "CAPACITE": "63", "CAPACITE0": "Places", "CREATION": null, "ADRESSE": "11 rue Eric Tabarly", "LIEU_DIT": null, "COMMUNE": "Plobannalec-Lesconil", "INSEE": "29165", "DEPARTEMEN": "29" }, "geometry": { "type": "Point", "coordinates": [ -4.206856504597304, 47.804340583295854 ] }}
{"properties": { "gml_id": "Camping_littoral.228", "IDENTIFIAN": 295, "DENOMINATI": "Camping les Sables Blancs", "STRUCTURE": "CLASS", "CLASSEMENT": "2 étoiles", "CAPACITE": "80", "CAPACITE0": "Places", "CREATION": null, "ADRESSE": "Keralouet", "LIEU_DIT": null, "COMMUNE": "Plobannalec-Lesconil", "INSEE": "29165", "DEPARTEMEN": "29" }, "geometry": { "type": "Point", "coordinates": [ -4.207077003582036, 47.806554260718052 ] }}
{"properties": { "gml_id": "Camping_littoral.229", "IDENTIFIAN": 296, "DENOMINATI": "Camping à la Ferme Kerguidy Izella", "STRUCTURE": "CLASS", "CLASSEMENT": "1 étoile", "CAPACITE": "25", "CAPACITE0": "Places", "CREATION": null, "ADRESSE": "Kerguidy Izella", "LIEU_DIT": null, "COMMUNE": "Plogoff", "INSEE": "29168", "DEPARTEMEN": "29" }, "geometry": { "type": "Point", "coordinates": [ -4.681478345092401, 48.037194969763469 ] }}
{"properties": { "gml_id": "Camping_littoral.23", "IDENTIFIAN": 333, "DENOMINATI": "Camping les Embruns", "STRUCTURE": "CLASS", "CLASSEMENT": "4 étoiles", "CAPACITE": "180", "CAPACITE0": "Places", "CREATION": null, "ADRESSE": "45 rue des Grands Sables", "LIEU_DIT": "Le Pouldu", "COMMUNE": "Clohars-Carnoët", "INSEE": "29031", "DEPARTEMEN": "29" }, "geometry": { "type": "Point", "coordinates": [ -3.545708557132361, 47.769667926419167 ] }}
{"properties": { "gml_id": "Camping_littoral.230", "IDENTIFIAN": 297, "DENOMINATI": "Camping Goulit-Ar-Guer", "STRUCTURE": "CLASS", "CLASSEMENT": "2 étoiles", "CAPACITE": "85", "CAPACITE0": "Places", "CREATION": null, "ADRESSE": "Plage de Pors ar Vag", "LIEU_DIT": null, "COMMUNE": "Plomodiern", "INSEE": "29172", "DEPARTEMEN": "29" }, "geometry": { "type": "Point", "coordinates": [ -4.290261001818109, 48.166372245032868 ] }}
{"properties": { "gml_id": "Camping_littoral.231", "IDENTIFIAN": 298, "DENOMINATI": "Camping Sainte-Anne", "STRUCTURE": "CLASS", "CLASSEMENT": "2 étoiles", "CAPACITE": "100", "CAPACITE0": "Places", "CREATION": null, "ADRESSE": "Creach Leren", "LIEU_DIT": "Sainte Anne la Palud", "COMMUNE": "Plonévez-Porzay", "INSEE": "29176", "DEPARTEMEN": "29" }, "geometry": { "type": "Point", "coordinates": [ -4.262098069761554, 48.134017769676262 ] }}
{"properties": { "gml_id": "Camping_littoral.232", "IDENTIFIAN": 299, "DENOMINATI": "Camping la Ville d'Ys", "STRUCTURE": "CLASS", "CLASSEMENT": "2 étoiles", "CAPACITE": "60", "CAPACITE0": "Places", "CREATION": null, "ADRESSE": "Plage de Kervel", "LIEU_DIT": null, "COMMUNE": "Plonévez-Porzay", "INSEE": "29176", "DEPARTEMEN": "29" }, "geometry": { "type": "Point", "coordinates": [ -4.279574255553933, 48.115660045730124 ] }}
{"properties": { "gml_id": "Camping_littoral.233", "IDENTIFIAN": 300, "DENOMINATI": "Camping municipal de Tréompan", "STRUCTURE": "CLASS", "CLASSEMENT": "2 étoiles", "CAPACITE": "134", "CAPACITE0": "Places", "CREATION": null, "ADRESSE": "chemin des Dunes Tréompan", "LIEU_DIT": "Portsall", "COMMUNE": "Ploudalmézeau", "INSEE": "29178", "DEPARTEMEN": "29" }, "geometry": { "type": "Point", "coordinates": [ -4.67101377566934, 48.56749497649777 ] }}
{"properties": { "gml_id": "Camping_littoral.234", "IDENTIFIAN": 301, "DENOMINATI": "Camping Baie de Térenez", "STRUCTURE": "CLASS", "CLASSEMENT": "3 étoiles", "CAPACITE": "142", "CAPACITE0": "Places", "CREATION": null, "ADRESSE": "Route Touristique", "LIEU_DIT": "Térenez", "COMMUNE": "Plouézoch", "INSEE": "29186", "DEPARTEMEN": "29" }, "geometry": { "type": "Point", "coordinates": [ -3.849070271947917, 48.658831877691526 ] }}
{"properties": { "gml_id": "Camping_littoral.235", "IDENTIFIAN": 302, "DENOMINATI": "Camping de l'Océan", "STRUCTURE": "CLASS", "CLASSEMENT": "2 étoiles", "CAPACITE": "100", "CAPACITE0": "Places", "CREATION": null, "ADRESSE": "Rue de l'Océan", "LIEU_DIT": null, "COMMUNE": "Plouhinec", "INSEE": "29197", "DEPARTEMEN": "29" }, "geometry": { "type": "Point", "coordinates": [ -4.494369012842141, 48.005993932270002 ] }}
{"properties": { "gml_id": "Camping_littoral.236", "IDENTIFIAN": 303, "DENOMINATI": "Camping Kérébel", "STRUCTURE": "CLASS", "CLASSEMENT": "1 étoile", "CAPACITE": "25", "CAPACITE0": "Places", "CREATION": null, "ADRESSE": "Route de Porsmoguer", "LIEU_DIT": null, "COMMUNE": "Ploumoguer", "INSEE": "29201", "DEPARTEMEN": "29" }, "geometry": { "type": "Point", "coordinates": [ -4.769981348628153, 48.408247300254438 ] }}
{"properties": { "gml_id": "Camping_littoral.237", "IDENTIFIAN": 304, "DENOMINATI": "Camping de la Corniche", "STRUCTURE": "CLASS", "CLASSEMENT": "3 étoiles", "CAPACITE": "120", "CAPACITE0": "Places", "CREATION": null, "ADRESSE": "Chemin de la Corniche", "LIEU_DIT": null, "COMMUNE": "Plozévet", "INSEE": "29215", "DEPARTEMEN": "29" }, "geometry": { "type": "Point", "coordinates": [ -4.429743999088987, 47.981035148749534 ] }}
{"properties": { "gml_id": "Camping_littoral.238", "IDENTIFIAN": 305, "DENOMINATI": "Camping le Bois Soleil", "STRUCTURE": "CLASS", "CLASSEMENT": "3 étoiles", "CAPACITE": "100", "CAPACITE0": "Places", "CREATION": null, "ADRESSE": "route de Bénodet", "LIEU_DIT": null, "COMMUNE": "Pont L'Abbé", "INSEE": "29220", "DEPARTEMEN": "29" }, "geometry": { "type": "Point", "coordinates": [ -4.194118152824794, 47.882569074859468 ] }}
{"properties": { "gml_id": "Camping_littoral.239", "IDENTIFIAN": 306, "DENOMINATI": "Camping de Landrézec", "STRUCTURE": "CLASS", "CLASSEMENT": "2 étoiles", "CAPACITE": "30", "CAPACITE0": "Places", "CREATION": null, "ADRESSE": "Route de la Mer", "LIEU_DIT": null, "COMMUNE": "Pouldreuzic", "INSEE": "29225", "DEPARTEMEN": "29" }, "geometry": { "type": "Point", "coordinates": [ -4.369991451323938, 47.950291823072924 ] }}
{"properties": { "gml_id": "Camping_littoral.24", "IDENTIFIAN": 334, "DENOMINATI": "Camping Municipal le Bois de Pleuven", "STRUCTURE": "CLASS", "CLASSEMENT": "4 étoiles", "CAPACITE": "280", "CAPACITE0": "Places", "CREATION": null, "ADRESSE": "Bois de Pleuven", "LIEU_DIT": null, "COMMUNE": "Saint-Yvi", "INSEE": "29272", "DEPARTEMEN": "29" }, "geometry": { "type": "Point", "coordinates": [ -3.969410841118848, 47.951618194196598 ] }}
{"properties": { "gml_id": "Camping_littoral.240", "IDENTIFIAN": 307, "DENOMINATI": "Camping du Seillou", "STRUCTURE": "CLASS", "CLASSEMENT": "2 étoiles", "CAPACITE": "120", "CAPACITE0": "Places", "CREATION": null, "ADRESSE": "Seillou", "LIEU_DIT": null, "COMMUNE": "Rosnoën", "INSEE": "29240", "DEPARTEMEN": "29" }, "geometry": { "type": "Point", "coordinates": [ -4.241037419012706, 48.286182103617179 ] }}
{"properties": { "gml_id": "Camping_littoral.241", "IDENTIFIAN": 308, "DENOMINATI": "Camping Ar Roc'h", "STRUCTURE": "CLASS", "CLASSEMENT": "2 étoiles", "CAPACITE": "45", "CAPACITE0": "Places", "CREATION": null, "ADRESSE": "Moguériec", "LIEU_DIT": null, "COMMUNE": "Sibiril", "INSEE": "29276", "DEPARTEMEN": "29" }, "geometry": { "type": "Point", "coordinates": [ -4.076756163380697, 48.687214591166047 ] }}
{"properties": { "gml_id": "Camping_littoral.242", "IDENTIFIAN": 309, "DENOMINATI": "Camping les Mimosas", "STRUCTURE": "CLASS", "CLASSEMENT": "2 étoiles", "CAPACITE": "94", "CAPACITE0": "Places", "CREATION": null, "ADRESSE": "Kergreis", "LIEU_DIT": "Rue de la Plage", "COMMUNE": "Telgruc-sur-Mer", "INSEE": "29280", "DEPARTEMEN": "29" }, "geometry": { "type": "Point", "coordinates": [ -4.367427586311307, 48.227220518532491 ] }}
{"properties": { "gml_id": "Camping_littoral.243", "IDENTIFIAN": 310, "DENOMINATI": "Camping des Ormes", "STRUCTURE": "CLASS", "CLASSEMENT": "2 étoiles", "CAPACITE": "74", "CAPACITE0": "Places", "CREATION": null, "ADRESSE": "Kerlay", "LIEU_DIT": null, "COMMUNE": "Treffiagat", "INSEE": "29284", "DEPARTEMEN": "29" }, "geometry": { "type": "Point", "coordinates": [ -4.256230409267237, 47.796702338593242 ] }}
{"properties": { "gml_id": "Camping_littoral.244", "IDENTIFIAN": 311, "DENOMINATI": "Camping Ker Beuz", "STRUCTURE": "CLASS", "CLASSEMENT": "3 étoiles", "CAPACITE": "40", "CAPACITE0": "Places", "CREATION": null, "ADRESSE": "Rulan", "LIEU_DIT": null, "COMMUNE": "Trégarvan", "INSEE": "29289", "DEPARTEMEN": "29" }, "geometry": { "type": "Point", "coordinates": [ -4.225208245860174, 48.24045569458054 ] }}
{"properties": { "gml_id": "Camping_littoral.245", "IDENTIFIAN": 312, "DENOMINATI": "Camping le Suroît", "STRUCTURE": "CLASS", "CLASSEMENT": "2 étoiles", "CAPACITE": "61", "CAPACITE0": "Places", "CREATION": null, "ADRESSE": "plage de Kersidan", "LIEU_DIT": null, "COMMUNE": "Trégunc", "INSEE": "29293", "DEPARTEMEN": "29" }, "geometry": { "type": "Point", "coordinates": [ -3.827691913130865, 47.797751852483685 ] }}
{"properties": { "gml_id": "Camping_littoral.246", "IDENTIFIAN": 313, "DENOMINATI": "Domaine de Trochérou", "STRUCTURE": "PARC", "CLASSEMENT": null, "CAPACITE": "16", "CAPACITE0": "Places", "CREATION": null, "ADRESSE": null, "LIEU_DIT": null, "COMMUNE": "Riec-sur-Bélon", "INSEE": "29236", "DEPARTEMEN": "29" }, "geometry": { "type": "Point", "coordinates": [ -3.714483171035662, 47.876304051690283 ] }}
{"properties": { "gml_id": "Camping_littoral.247", "IDENTIFIAN": 314, "DENOMINATI": "Camping Pors Keraign", "STRUCTURE": "CLASS", "CLASSEMENT": "2 étoiles", "CAPACITE": "60", "CAPACITE0": "Places", "CREATION": null, "ADRESSE": "60-72 vieille route de Pors Keraign", "LIEU_DIT": null, "COMMUNE": "Gouesnac'h", "INSEE": "29060", "DEPARTEMEN": "29" }, "geometry": { "type": "Point", "coordinates": [ -4.140015552072706, 47.909264336754838 ] }}
{"properties": { "gml_id": "Camping_littoral.248", "IDENTIFIAN": 315, "DENOMINATI": "Camping Municipal de Kérilis", "STRUCTURE": "CLASS", "CLASSEMENT": "2 étoiles", "CAPACITE": "50", "CAPACITE0": "Places", "CREATION": null, "ADRESSE": "Menec Izella", "LIEU_DIT": null, "COMMUNE": "Henvic", "INSEE": "29079", "DEPARTEMEN": "29" }, "geometry": { "type": "Point", "coordinates": [ -3.930080829595559, 48.634813194746435 ] }}
{"properties": { "gml_id": "Camping_littoral.249", "IDENTIFIAN": 316, "DENOMINATI": "Camping Municipal Odé Vras", "STRUCTURE": "CLASS", "CLASSEMENT": "2 étoiles", "CAPACITE": "135", "CAPACITE0": "Places", "CREATION": null, "ADRESSE": "Odé Vras", "LIEU_DIT": null, "COMMUNE": "Plounévez-Lochrist", "INSEE": "29206", "DEPARTEMEN": "29" }, "geometry": { "type": "Point", "coordinates": [ -4.233625039727878, 48.648191088897804 ] }}
{"properties": { "gml_id": "Camping_littoral.25", "IDENTIFIAN": 335, "DENOMINATI": "Camping Municipal Toul ar Goué", "STRUCTURE": "CLASS", "CLASSEMENT": "2 étoiles", "CAPACITE": "170", "CAPACITE0": "Places", "CREATION": null, "ADRESSE": "route de Plestin-les-Grèves", "LIEU_DIT": null, "COMMUNE": "Locquirec", "INSEE": "29133", "DEPARTEMEN": "29" }, "geometry": { "type": "Point", "coordinates": [ -3.655142914616667, 48.68107162364921 ] }}
{"properties": { "gml_id": "Camping_littoral.250", "IDENTIFIAN": 317, "DENOMINATI": "Camping Municipal des Dunes", "STRUCTURE": "CLASS", "CLASSEMENT": "2 étoiles", "CAPACITE": "150", "CAPACITE0": "Places", "CREATION": null, "ADRESSE": "Le Vourc'h", "LIEU_DIT": null, "COMMUNE": "Lampaul-Ploudalmézeau", "INSEE": "29099", "DEPARTEMEN": "29" }, "geometry": { "type": "Point", "coordinates": [ -4.656463199598075, 48.568891022575215 ] }}
{"properties": { "gml_id": "Camping_littoral.251", "IDENTIFIAN": 318, "DENOMINATI": "Camping au Vieux Verger", "STRUCTURE": "CLASS", "CLASSEMENT": "2 étoiles", "CAPACITE": "95", "CAPACITE0": "Places", "CREATION": null, "ADRESSE": "591 route de la Madeleine Locquillec", "LIEU_DIT": null, "COMMUNE": "Baye", "INSEE": "29005", "DEPARTEMEN": "29" }, "geometry": { "type": "Point", "coordinates": [ -3.617885431470396, 47.865447932124169 ] }}
{"properties": { "gml_id": "Camping_littoral.252", "IDENTIFIAN": 319, "DENOMINATI": "Camping de la Plage", "STRUCTURE": "CLASS", "CLASSEMENT": "3 étoiles", "CAPACITE": "300", "CAPACITE0": "Places", "CREATION": null, "ADRESSE": "20 rue du Poulquer", "LIEU_DIT": "Kerambechennec", "COMMUNE": "Bénodet", "INSEE": "29006", "DEPARTEMEN": "29" }, "geometry": { "type": "Point", "coordinates": [ -4.095462714112971, 47.868422116494202 ] }}
{"properties": { "gml_id": "Camping_littoral.253", "IDENTIFIAN": 320, "DENOMINATI": "Camping du Letty", "STRUCTURE": "CLASS", "CLASSEMENT": "4 étoiles", "CAPACITE": "493", "CAPACITE0": "Places", "CREATION": null, "ADRESSE": "Creisanguer", "LIEU_DIT": null, "COMMUNE": "Bénodet", "INSEE": "29006", "DEPARTEMEN": "29" }, "geometry": { "type": "Point", "coordinates": [ -4.090876624804948, 47.86388151510166 ] }}
{"properties": { "gml_id": "Camping_littoral.254", "IDENTIFIAN": 321, "DENOMINATI": "Camping de la Pointe Saint-Gilles", "STRUCTURE": "CLASS", "CLASSEMENT": "4 étoiles", "CAPACITE": "486", "CAPACITE0": "Places", "CREATION": null, "ADRESSE": "Rue Poulmic", "LIEU_DIT": null, "COMMUNE": "Bénodet", "INSEE": "29006", "DEPARTEMEN": "29" }, "geometry": { "type": "Point", "coordinates": [ -4.096802304845342, 47.864527290222227 ] }}
{"properties": { "gml_id": "Camping_littoral.255", "IDENTIFIAN": 322, "DENOMINATI": "Camping de la Mer Blanche", "STRUCTURE": "CLASS", "CLASSEMENT": "3 étoiles", "CAPACITE": "200", "CAPACITE0": "Places", "CREATION": null, "ADRESSE": "route de Fouesnant", "LIEU_DIT": null, "COMMUNE": "Bénodet", "INSEE": "29006", "DEPARTEMEN": "29" }, "geometry": { "type": "Point", "coordinates": [ -4.067618405979788, 47.874908360074556 ] }}
{"properties": { "gml_id": "Camping_littoral.256", "IDENTIFIAN": 323, "DENOMINATI": "Camping du Poulquer", "STRUCTURE": "CLASS", "CLASSEMENT": "3 étoiles", "CAPACITE": "240", "CAPACITE0": "Places", "CREATION": null, "ADRESSE": "23 rue du Poulquer", "LIEU_DIT": null, "COMMUNE": "Bénodet", "INSEE": "29006", "DEPARTEMEN": "29" }, "geometry": { "type": "Point", "coordinates": [ -4.098455239786071, 47.867058738371085 ] }}
{"properties": { "gml_id": "Camping_littoral.257", "IDENTIFIAN": 324, "DENOMINATI": "Camping aux deux Chênes", "STRUCTURE": "CLASS", "CLASSEMENT": "2 étoiles", "CAPACITE": "113", "CAPACITE0": "Places", "CREATION": null, "ADRESSE": "route de Kerangalès", "LIEU_DIT": null, "COMMUNE": "Bénodet", "INSEE": "29006", "DEPARTEMEN": "29" }, "geometry": { "type": "Point", "coordinates": [ -4.037142806246227, 47.886934691939473 ] }}
{"properties": { "gml_id": "Camping_littoral.258", "IDENTIFIAN": 325, "DENOMINATI": "Camping du Trez", "STRUCTURE": "CLASS", "CLASSEMENT": "3 étoiles", "CAPACITE": "179", "CAPACITE0": "Places", "CREATION": null, "ADRESSE": "9 rue des peupliers", "LIEU_DIT": null, "COMMUNE": "Bénodet", "INSEE": "29006", "DEPARTEMEN": "29" }, "geometry": { "type": "Point", "coordinates": [ -4.098874336244172, 47.873253833041169 ] }}
{"properties": { "gml_id": "Camping_littoral.259", "IDENTIFIAN": 326, "DENOMINATI": "Camping du Port de Plaisance", "STRUCTURE": "CLASS", "CLASSEMENT": "4 étoiles", "CAPACITE": "340", "CAPACITE0": "Places", "CREATION": null, "ADRESSE": "7 route de Quimper", "LIEU_DIT": "Prad-Poullou", "COMMUNE": "Clohars-Fouesnant", "INSEE": "29032", "DEPARTEMEN": "29" }, "geometry": { "type": "Point", "coordinates": [ -4.10037841467578, 47.881816315856923 ] }}
{"properties": { "gml_id": "Camping_littoral.26", "IDENTIFIAN": 336, "DENOMINATI": "Camping Municipal les Pins", "STRUCTURE": "CLASS", "CLASSEMENT": "2 étoiles", "CAPACITE": "77", "CAPACITE0": "Places", "CREATION": null, "ADRESSE": "route de Plestin-les-Grèves", "LIEU_DIT": null, "COMMUNE": "Locquirec", "INSEE": "29133", "DEPARTEMEN": "29" }, "geometry": { "type": "Point", "coordinates": [ -3.650581346096565, 48.678789436573837 ] }}
{"properties": { "gml_id": "Camping_littoral.260", "IDENTIFIAN": 327, "DENOMINATI": "Camping Pors Péron", "STRUCTURE": "CLASS", "CLASSEMENT": "2 étoiles", "CAPACITE": "98", "CAPACITE0": "Places", "CREATION": null, "ADRESSE": "Pors Péron", "LIEU_DIT": null, "COMMUNE": "Beuzec-Cap-Sizun", "INSEE": "29008", "DEPARTEMEN": "29" }, "geometry": { "type": "Point", "coordinates": [ -4.481951719901406, 48.083645979101853 ] }}
{"properties": { "gml_id": "Camping_littoral.261", "IDENTIFIAN": 328, "DENOMINATI": "Camping du Goulet", "STRUCTURE": "CLASS", "CLASSEMENT": "3 étoiles", "CAPACITE": "155", "CAPACITE0": "Places", "CREATION": null, "ADRESSE": "Ste Anne du Portzic", "LIEU_DIT": null, "COMMUNE": "Brest", "INSEE": "29019", "DEPARTEMEN": "29" }, "geometry": { "type": "Point", "coordinates": [ -4.539144271639952, 48.365325699661774 ] }}
{"properties": { "gml_id": "Camping_littoral.262", "IDENTIFIAN": 329, "DENOMINATI": "Camping de la Côte des Légendes", "STRUCTURE": "CLASS", "CLASSEMENT": "2 étoiles", "CAPACITE": "250", "CAPACITE0": "Places", "CREATION": null, "ADRESSE": "Keravézan", "LIEU_DIT": "BP 36", "COMMUNE": "Brignogan-Plages", "INSEE": "29021", "DEPARTEMEN": "29" }, "geometry": { "type": "Point", "coordinates": [ -4.329414602238891, 48.671735912091854 ] }}
{"properties": { "gml_id": "Camping_littoral.263", "IDENTIFIAN": 598, "DENOMINATI": "Camping La Ville Mauny", "STRUCTURE": "Camping", "CLASSEMENT": "2", "CAPACITE": "200", "CAPACITE0": null, "CREATION": null, "ADRESSE": "Rue de La Ville Mauny - 35800 Dinard", "LIEU_DIT": "La Ville Mauny-", "COMMUNE": "Dinard", "INSEE": null, "DEPARTEMEN": "35" }, "geometry": { "type": "Point", "coordinates": [ -2.07540510436478, 48.618669564281177 ] }}
{"properties": { "gml_id": "Camping_littoral.264", "IDENTIFIAN": 601, "DENOMINATI": "Camping Cité d'Alet", "STRUCTURE": "Camping", "CLASSEMENT": "2", "CAPACITE": "400", "CAPACITE0": null, "CREATION": "09\/10\/1963", "ADRESSE": "Allée Gaston Buy -35400 St Malo", "LIEU_DIT": null, "COMMUNE": "Saint-Malo", "INSEE": "35288", "DEPARTEMEN": "35" }, "geometry": { "type": "Point", "coordinates": [ -2.027417667025218, 48.636021868538606 ] }}
{"properties": { "gml_id": "Camping_littoral.265", "IDENTIFIAN": 603, "DENOMINATI": "Camping municipal_Beau-séjour", "STRUCTURE": "Camping", "CLASSEMENT": "2", "CAPACITE": "150", "CAPACITE0": null, "CREATION": "27\/06\/1969", "ADRESSE": "Rue du Général De Gaule", "LIEU_DIT": null, "COMMUNE": "La Richardais", "INSEE": "35241", "DEPARTEMEN": "35" }, "geometry": { "type": "Point", "coordinates": [ -2.037619478453586, 48.60622587035791 ] }}
{"properties": { "gml_id": "Camping_littoral.266", "IDENTIFIAN": 604, "DENOMINATI": "Camping Le Rivage", "STRUCTURE": "Camping", "CLASSEMENT": null, "CAPACITE": null, "CAPACITE0": null, "CREATION": null, "ADRESSE": null, "LIEU_DIT": null, "COMMUNE": "Le Minihic sur Rance", "INSEE": "35181", "DEPARTEMEN": "35" }, "geometry": { "type": "Point", "coordinates": [ -2.011415678696441, 48.573500789736414 ] }}
{"properties": { "gml_id": "Camping_littoral.267", "IDENTIFIAN": 605, "DENOMINATI": "NoData", "STRUCTURE": "Camping", "CLASSEMENT": null, "CAPACITE": null, "CAPACITE0": null, "CREATION": null, "ADRESSE": null, "LIEU_DIT": null, "COMMUNE": null, "INSEE": null, "DEPARTEMEN": "35" }, "geometry": { "type": "Point", "coordinates": [ -1.966243879480507, 48.524664962726931 ] }}
{"properties": { "gml_id": "Camping_littoral.268", "IDENTIFIAN": 606, "DENOMINATI": "Camping municipal \"Le Vigneux\"", "STRUCTURE": "Camping", "CLASSEMENT": "2", "CAPACITE": "66", "CAPACITE0": null, "CREATION": null, "ADRESSE": "Chemin  de Vigneux", "LIEU_DIT": "Le Vigneux", "COMMUNE": "La Villes Es Nonais", "INSEE": "35358", "DEPARTEMEN": "35" }, "geometry": { "type": "Point", "coordinates": [ -1.962628899392233, 48.544407480897235 ] }}
{"properties": { "gml_id": "Camping_littoral.269", "IDENTIFIAN": 607, "DENOMINATI": "Camping municipal Les Cours", "STRUCTURE": "Camping", "CLASSEMENT": "2", "CAPACITE": "100", "CAPACITE0": null, "CREATION": null, "ADRESSE": null, "LIEU_DIT": null, "COMMUNE": "Saint-Suliac", "INSEE": "35314", "DEPARTEMEN": "35" }, "geometry": { "type": "Point", "coordinates": [ -1.974398063908318, 48.573796980868934 ] }}
{"properties": { "gml_id": "Camping_littoral.27", "IDENTIFIAN": 337, "DENOMINATI": "Camping de Keranquernat", "STRUCTURE": "CLASS", "CLASSEMENT": "2 étoiles", "CAPACITE": "100", "CAPACITE0": "Places", "CREATION": null, "ADRESSE": "Keranquernat", "LIEU_DIT": "Le Pouldu", "COMMUNE": "Clohars-Carnoët", "INSEE": "29031", "DEPARTEMEN": "29" }, "geometry": { "type": "Point", "coordinates": [ -3.545428022195468, 47.773140404315448 ] }}
{"properties": { "gml_id": "Camping_littoral.270", "IDENTIFIAN": 609, "DENOMINATI": "Camping Le Petit Bois", "STRUCTURE": "Camping", "CLASSEMENT": "3", "CAPACITE": "180", "CAPACITE0": null, "CREATION": "05\/05\/1983", "ADRESSE": "La Lande Chandelouse_35430", "LIEU_DIT": "La Lande Chandelouse", "COMMUNE": "Saint-Jouan des Guérêts", "INSEE": "35284", "DEPARTEMEN": "35" }, "geometry": { "type": "Point", "coordinates": [ -1.986979099919742, 48.609974200929408 ] }}
{"properties": { "gml_id": "Camping_littoral.271", "IDENTIFIAN": 610, "DENOMINATI": "Camping La Ville Huchet", "STRUCTURE": "Camping", "CLASSEMENT": "3", "CAPACITE": "196", "CAPACITE0": null, "CREATION": "30\/11\/1984", "ADRESSE": "Route de la Passagère- Quelmer-35400 St Malo", "LIEU_DIT": "La Ville Huchet", "COMMUNE": "Saint-Malo", "INSEE": "35288", "DEPARTEMEN": "35" }, "geometry": { "type": "Point", "coordinates": [ -1.98785325179179, 48.61512409031107 ] }}
{"properties": { "gml_id": "Camping_littoral.272", "IDENTIFIAN": 611, "DENOMINATI": "Camping Le Nicet", "STRUCTURE": "Camping", "CLASSEMENT": "2", "CAPACITE": "250", "CAPACITE0": null, "CREATION": "26\/05\/1962", "ADRESSE": "Avenue de La Varde-35400 St Malo", "LIEU_DIT": null, "COMMUNE": "Saint-Malo", "INSEE": "35288", "DEPARTEMEN": "35" }, "geometry": { "type": "Point", "coordinates": [ -1.977432264462659, 48.681920721886954 ] }}
{"properties": { "gml_id": "Camping_littoral.273", "IDENTIFIAN": 612, "DENOMINATI": "Camping Les Ilots", "STRUCTURE": "Camping", "CLASSEMENT": "2", "CAPACITE": "133", "CAPACITE0": null, "CREATION": "12\/07\/1967", "ADRESSE": "Avenue de La Guimorais-35400 St Malo", "LIEU_DIT": null, "COMMUNE": "Saint-Malo", "INSEE": "35288", "DEPARTEMEN": "35" }, "geometry": { "type": "Point", "coordinates": [ -1.963011669548455, 48.680380782156725 ] }}
{"properties": { "gml_id": "Camping_littoral.274", "IDENTIFIAN": 613, "DENOMINATI": "NoData", "STRUCTURE": "Camping", "CLASSEMENT": null, "CAPACITE": null, "CAPACITE0": null, "CREATION": null, "ADRESSE": null, "LIEU_DIT": "La Guimorais", "COMMUNE": "Saint-Coulomb", "INSEE": "35263", "DEPARTEMEN": "35" }, "geometry": { "type": "Point", "coordinates": [ -1.946355124930243, 48.690706933622998 ] }}
{"properties": { "gml_id": "Camping_littoral.275", "IDENTIFIAN": 614, "DENOMINATI": "Camping Les Chevrets", "STRUCTURE": "Camping", "CLASSEMENT": "3", "CAPACITE": "600", "CAPACITE0": null, "CREATION": null, "ADRESSE": null, "LIEU_DIT": "La Guimorais", "COMMUNE": "Saint-Coulomb", "INSEE": "35263", "DEPARTEMEN": "35" }, "geometry": { "type": "Point", "coordinates": [ -1.941363001141643, 48.690258005157453 ] }}
{"properties": { "gml_id": "Camping_littoral.276", "IDENTIFIAN": 615, "DENOMINATI": "Camping Les Nielles", "STRUCTURE": "Camping", "CLASSEMENT": "2", "CAPACITE": "95", "CAPACITE0": null, "CREATION": "26\/05\/1962", "ADRESSE": "Avenue John Kennedy-35400 St Malo", "LIEU_DIT": "La Guimorais", "COMMUNE": "Saint-Coulomb", "INSEE": "35263", "DEPARTEMEN": "35" }, "geometry": { "type": "Point", "coordinates": [ -1.943919039527082, 48.691352830782314 ] }}
{"properties": { "gml_id": "Camping_littoral.277", "IDENTIFIAN": 616, "DENOMINATI": "Camping de La Fontaine aux pelerins", "STRUCTURE": "Camping", "CLASSEMENT": null, "CAPACITE": "100", "CAPACITE0": null, "CREATION": "06\/05\/80", "ADRESSE": "49, rue de La Fontaine aux Pélerins", "LIEU_DIT": "La Fontaine aux Pélerins", "COMMUNE": "Saint-Malo", "INSEE": "35288", "DEPARTEMEN": "35" }, "geometry": { "type": "Point", "coordinates": [ -1.959073166201478, 48.657858631424162 ] }}
{"properties": { "gml_id": "Camping_littoral.278", "IDENTIFIAN": 617, "DENOMINATI": "Camping municipal La Vallée Verte", "STRUCTURE": "Camping", "CLASSEMENT": "2", "CAPACITE": "83", "CAPACITE0": null, "CREATION": "25\/02\/1997", "ADRESSE": null, "LIEU_DIT": "La Vallée Verte", "COMMUNE": "Saint-Méloir-des-Ondes", "INSEE": "35299", "DEPARTEMEN": "35" }, "geometry": { "type": "Point", "coordinates": [ -1.902369037481357, 48.63438627307751 ] }}
{"properties": { "gml_id": "Camping_littoral.279", "IDENTIFIAN": 618, "DENOMINATI": "Camping La Rafale", "STRUCTURE": "Camping", "CLASSEMENT": "1", "CAPACITE": "33", "CAPACITE0": null, "CREATION": "27\/12\/1966", "ADRESSE": null, "LIEU_DIT": "La Haute Marette", "COMMUNE": "Saint-Coulomb", "INSEE": "35263", "DEPARTEMEN": "35" }, "geometry": { "type": "Point", "coordinates": [ -1.93219356065182, 48.690477025909274 ] }}
{"properties": { "gml_id": "Camping_littoral.28", "IDENTIFIAN": 338, "DENOMINATI": "Camping du Kérou", "STRUCTURE": "CLASS", "CLASSEMENT": "2 étoiles", "CAPACITE": "200", "CAPACITE0": "Places", "CREATION": null, "ADRESSE": "impasse des Ajoncs", "LIEU_DIT": "Le Pouldu", "COMMUNE": "Clohars-Carnoët", "INSEE": "29031", "DEPARTEMEN": "29" }, "geometry": { "type": "Point", "coordinates": [ -3.558259739711381, 47.770411210330863 ] }}
{"properties": { "gml_id": "Camping_littoral.280", "IDENTIFIAN": 619, "DENOMINATI": "Camping La Touesse", "STRUCTURE": "Camping", "CLASSEMENT": "2", "CAPACITE": "120", "CAPACITE0": null, "CREATION": "04\/08\/1965", "ADRESSE": null, "LIEU_DIT": "La Touesse", "COMMUNE": "Saint-Coulomb", "INSEE": "35263", "DEPARTEMEN": "35" }, "geometry": { "type": "Point", "coordinates": [ -1.921372950631634, 48.689156099391688 ] }}
{"properties": { "gml_id": "Camping_littoral.281", "IDENTIFIAN": 620, "DENOMINATI": "Camping Le Haut Maloisel", "STRUCTURE": "TOUNA", "CLASSEMENT": null, "CAPACITE": "12", "CAPACITE0": null, "CREATION": "24\/11\/1977", "ADRESSE": null, "LIEU_DIT": null, "COMMUNE": "Saint-Coulomb", "INSEE": "35263", "DEPARTEMEN": "35" }, "geometry": { "type": "Point", "coordinates": [ -1.917327147052138, 48.688654660192881 ] }}
{"properties": { "gml_id": "Camping_littoral.282", "IDENTIFIAN": 621, "DENOMINATI": "Camping Notre Dame du Verger", "STRUCTURE": "Camping", "CLASSEMENT": "3", "CAPACITE": "67", "CAPACITE0": null, "CREATION": "25\/09\/1978", "ADRESSE": "35260 Cancale", "LIEU_DIT": "Notre dame du Verger", "COMMUNE": "Cancale", "INSEE": "35049", "DEPARTEMEN": "35" }, "geometry": { "type": "Point", "coordinates": [ -1.874543913282937, 48.690521960816334 ] }}
{"properties": { "gml_id": "Camping_littoral.283", "IDENTIFIAN": 622, "DENOMINATI": "Camping Le Du Guesclin", "STRUCTURE": "Camping", "CLASSEMENT": "2", "CAPACITE": "43", "CAPACITE0": null, "CREATION": null, "ADRESSE": "Tannée -   35350 Saint-Coulomb", "LIEU_DIT": "Tannée", "COMMUNE": "Saint-Coulomb", "INSEE": "35263", "DEPARTEMEN": "35" }, "geometry": { "type": "Point", "coordinates": [ -1.890323682300962, 48.686563494042154 ] }}
{"properties": { "gml_id": "Camping_littoral.284", "IDENTIFIAN": 623, "DENOMINATI": "Camping Les Genêts", "STRUCTURE": "Camping", "CLASSEMENT": "1", "CAPACITE": "33", "CAPACITE0": null, "CREATION": "23\/06\/1975", "ADRESSE": "La Ville Guerie - 35260 Cancale", "LIEU_DIT": "''La Haute Ville Guerie\"", "COMMUNE": "Cancale", "INSEE": "35049", "DEPARTEMEN": "35" }, "geometry": { "type": "Point", "coordinates": [ -1.868845135718737, 48.683156732609056 ] }}
{"properties": { "gml_id": "Camping_littoral.285", "IDENTIFIAN": 624, "DENOMINATI": "Camping Les Dis", "STRUCTURE": "Camping", "CLASSEMENT": "1", "CAPACITE": "50", "CAPACITE0": null, "CREATION": "04\/07\/1994", "ADRESSE": "Chemin des Dis - 35120", "LIEU_DIT": "Les Dis", "COMMUNE": "Saint-Benoit des Ondes", "INSEE": "35255", "DEPARTEMEN": "35" }, "geometry": { "type": "Point", "coordinates": [ -1.863187582374272, 48.62181687874434 ] }}
{"properties": { "gml_id": "Camping_littoral.286", "IDENTIFIAN": 625, "DENOMINATI": "Camping Horizon Loisirs", "STRUCTURE": "Camping", "CLASSEMENT": "2", "CAPACITE": "48", "CAPACITE0": null, "CREATION": "25\/09\/1975", "ADRESSE": "34 rue des Alleux - 35120 Hirel", "LIEU_DIT": "Les Alleux", "COMMUNE": "Hirel", "INSEE": "35132", "DEPARTEMEN": "35" }, "geometry": { "type": "Point", "coordinates": [ -1.803664361967272, 48.60289409228691 ] }}
{"properties": { "gml_id": "Camping_littoral.287", "IDENTIFIAN": 588, "DENOMINATI": "Camping municipal  Le Pont Laurin", "STRUCTURE": "Camping", "CLASSEMENT": "2", "CAPACITE": "200", "CAPACITE0": null, "CREATION": "14\/05\/1968", "ADRESSE": "La Vallée-Gatorge- 35800 Saint Briac", "LIEU_DIT": "Le Pont Laurin", "COMMUNE": "Saint-Briac sur Mer", "INSEE": "35256", "DEPARTEMEN": "35" }, "geometry": { "type": "Point", "coordinates": [ -2.128090307264154, 48.614211486305472 ] }}
{"properties": { "gml_id": "Camping_littoral.288", "IDENTIFIAN": 589, "DENOMINATI": "Camping Emeraude", "STRUCTURE": "Camping", "CLASSEMENT": "3", "CAPACITE": "191", "CAPACITE0": null, "CREATION": "13\/12\/1987", "ADRESSE": "7, chemin de la souris - 35800 Saint Briac", "LIEU_DIT": "Le Domaine des Pins", "COMMUNE": "Saint-Briac sur Mer", "INSEE": "35256", "DEPARTEMEN": "35" }, "geometry": { "type": "Point", "coordinates": [ -2.130364669855385, 48.627391994467551 ] }}
{"properties": { "gml_id": "Camping_littoral.289", "IDENTIFIAN": 591, "DENOMINATI": "Le Vert Vallon", "STRUCTURE": "Camping", "CLASSEMENT": "1", "CAPACITE": "50", "CAPACITE0": null, "CREATION": null, "ADRESSE": null, "LIEU_DIT": "La Marre", "COMMUNE": "Saint-Lunaire", "INSEE": "35287", "DEPARTEMEN": "35" }, "geometry": { "type": "Point", "coordinates": [ -2.121429653877136, 48.63140584247401 ] }}
{"properties": { "gml_id": "Camping_littoral.29", "IDENTIFIAN": 339, "DENOMINATI": "Camping de Kervoën", "STRUCTURE": "CLASS", "CLASSEMENT": "2 étoiles", "CAPACITE": "93", "CAPACITE0": "Places", "CREATION": null, "ADRESSE": "Kervoën", "LIEU_DIT": null, "COMMUNE": "Clohars-Carnoët", "INSEE": "29031", "DEPARTEMEN": "29" }, "geometry": { "type": "Point", "coordinates": [ -3.570871382079616, 47.774298502383559 ] }}
{"properties": { "gml_id": "Camping_littoral.290", "IDENTIFIAN": 592, "DENOMINATI": "Camping  Les Longchamp", "STRUCTURE": "Camping", "CLASSEMENT": "3", "CAPACITE": "133", "CAPACITE0": null, "CREATION": "06\/07\/1981", "ADRESSE": "Bd de Saint Cast 35800 Saint-Lunaire", "LIEU_DIT": null, "COMMUNE": "Saint-Lunaire", "INSEE": "35287", "DEPARTEMEN": "35" }, "geometry": { "type": "Point", "coordinates": [ -2.116387896133204, 48.634773461886702 ] }}
{"properties": { "gml_id": "Camping_littoral.291", "IDENTIFIAN": 593, "DENOMINATI": "Camping Le Far West", "STRUCTURE": "Camping", "CLASSEMENT": "3", "CAPACITE": "300", "CAPACITE0": null, "CREATION": "30\/01\/1968", "ADRESSE": "Bd de Saint Cast 35800 Saint-Lunaire", "LIEU_DIT": null, "COMMUNE": "Saint-Lunaire", "INSEE": "35287", "DEPARTEMEN": "35" }, "geometry": { "type": "Point", "coordinates": [ -2.121012026954347, 48.633906428201215 ] }}
{"properties": { "gml_id": "Camping_littoral.292", "IDENTIFIAN": 594, "DENOMINATI": "Camping La Touesse", "STRUCTURE": "Camping", "CLASSEMENT": null, "CAPACITE": "135", "CAPACITE0": null, "CREATION": "17\/06\/1985", "ADRESSE": "262 rue de la Touesse - 35800 Saint Lunaire", "LIEU_DIT": "La Touesse", "COMMUNE": "Saint-Lunaire", "INSEE": "35287", "DEPARTEMEN": "35" }, "geometry": { "type": "Point", "coordinates": [ -2.08394196755424, 48.630931116074379 ] }}
{"properties": { "gml_id": "Camping_littoral.293", "IDENTIFIAN": 595, "DENOMINATI": "Camping municipal Le Port Blanc", "STRUCTURE": "Camping", "CLASSEMENT": "3", "CAPACITE": "297", "CAPACITE0": null, "CREATION": "23\/06\/1962", "ADRESSE": "Rue du sergent Boulanger - 35800", "LIEU_DIT": null, "COMMUNE": "Dinard", "INSEE": "35093", "DEPARTEMEN": "35" }, "geometry": { "type": "Point", "coordinates": [ -2.079308410652056, 48.634990473911579 ] }}
{"properties": { "gml_id": "Camping_littoral.294", "IDENTIFIAN": 596, "DENOMINATI": "Camping Des Etangs", "STRUCTURE": "Camping", "CLASSEMENT": null, "CAPACITE": null, "CAPACITE0": null, "CREATION": "13\/04\/1980", "ADRESSE": "rue des étangs", "LIEU_DIT": null, "COMMUNE": "La Richardais", "INSEE": "35241", "DEPARTEMEN": "35" }, "geometry": { "type": "Point", "coordinates": [ -2.039148269535476, 48.603522671531223 ] }}
{"properties": { "gml_id": "Camping_littoral.295", "IDENTIFIAN": 597, "DENOMINATI": "Camping municipal de L'Estuaire", "STRUCTURE": "Camping", "CLASSEMENT": "2", "CAPACITE": "83", "CAPACITE0": null, "CREATION": "11\/05\/1978", "ADRESSE": "Rue Jean Boyer 35730 Pleurtuit", "LIEU_DIT": null, "COMMUNE": "Pleurtuit", "INSEE": "35228", "DEPARTEMEN": "35" }, "geometry": { "type": "Point", "coordinates": [ -2.056483654959111, 48.580371864686072 ] }}
{"properties": { "gml_id": "Camping_littoral.296", "IDENTIFIAN": 626, "DENOMINATI": "Camping Municipal \"L'abri des flots\"", "STRUCTURE": "Camping", "CLASSEMENT": "2", "CAPACITE": "90", "CAPACITE0": null, "CREATION": "24\/09\/1975", "ADRESSE": null, "LIEU_DIT": "LE Gros Billot", "COMMUNE": "Le Vivier sur Mer", "INSEE": "35361", "DEPARTEMEN": "35" }, "geometry": { "type": "Point", "coordinates": [ -1.772471184725916, 48.60296501908627 ] }}
{"properties": { "gml_id": "Camping_littoral.297", "IDENTIFIAN": 627, "DENOMINATI": "Camping L'Aumône", "STRUCTURE": "Camping", "CLASSEMENT": "2", "CAPACITE": "100", "CAPACITE0": null, "CREATION": "14\/07\/1977", "ADRESSE": "L'Aumône - 35120", "LIEU_DIT": "L'Aumône", "COMMUNE": "Cherruiex", "INSEE": "35078", "DEPARTEMEN": "35" }, "geometry": { "type": "Point", "coordinates": [ -1.712377664047737, 48.601517834435164 ] }}
{"properties": { "gml_id": "Camping_littoral.298", "IDENTIFIAN": 628, "DENOMINATI": "Camping Le Tenzor de la Baie", "STRUCTURE": "Camping", "CLASSEMENT": "2", "CAPACITE": "79", "CAPACITE0": null, "CREATION": "11\/07\/1969", "ADRESSE": "Rue Théophile Blin - 35120", "LIEU_DIT": null, "COMMUNE": "Cherruiex", "INSEE": "35078", "DEPARTEMEN": "35" }, "geometry": { "type": "Point", "coordinates": [ -1.707946701446539, 48.604364917759014 ] }}
{"properties": { "gml_id": "Camping_littoral.299", "IDENTIFIAN": 629, "DENOMINATI": "Camping Les Couesnons", "STRUCTURE": "Camping", "CLASSEMENT": "2", "CAPACITE": "100", "CAPACITE0": null, "CREATION": "03\/03\/1976", "ADRESSE": "Route de St Malo", "LIEU_DIT": "Pièce de l'hôpital", "COMMUNE": "Roz-sur-Couesnon", "INSEE": "35247", "DEPARTEMEN": "35" }, "geometry": { "type": "Point", "coordinates": [ -1.598530853554124, 48.594391992979375 ] }}
{"properties": { "gml_id": "Camping_littoral.3", "IDENTIFIAN": 210, "DENOMINATI": "Camping les Châtaigniers", "STRUCTURE": "CLASS", "CLASSEMENT": "2 étoiles", "CAPACITE": "31", "CAPACITE0": "Places", "CREATION": null, "ADRESSE": "route de Combrit", "LIEU_DIT": null, "COMMUNE": "Pont l'Abbé", "INSEE": "29220", "DEPARTEMEN": "29" }, "geometry": { "type": "Point", "coordinates": [ -4.196702328897094, 47.886209314198837 ] }}
{"properties": { "gml_id": "Camping_littoral.30", "IDENTIFIAN": 340, "DENOMINATI": "Camping de Locouarn", "STRUCTURE": "CLASS", "CLASSEMENT": "2 étoiles", "CAPACITE": "100", "CAPACITE0": "Places", "CREATION": null, "ADRESSE": "Locouarn", "LIEU_DIT": "Le Pouldu", "COMMUNE": "Clohars-Carnoët", "INSEE": "29031", "DEPARTEMEN": "29" }, "geometry": { "type": "Point", "coordinates": [ -3.549159954933392, 47.783439270648699 ] }}
{"properties": { "gml_id": "Camping_littoral.300", "IDENTIFIAN": 631, "DENOMINATI": "Camping Les Nielles", "STRUCTURE": "Camping", "CLASSEMENT": "2", "CAPACITE": "95", "CAPACITE0": null, "CREATION": "25\/05\/1962", "ADRESSE": "Avenue John Kennedy", "LIEU_DIT": null, "COMMUNE": "Saint-Malo", "INSEE": "35288", "DEPARTEMEN": "35" }, "geometry": { "type": "Point", "coordinates": [ -1.984742927423573, 48.667638307693466 ] }}
{"properties": { "gml_id": "Camping_littoral.301", "IDENTIFIAN": 634, "DENOMINATI": "Camping A La Pointe du Grouin", "STRUCTURE": "Camping", "CLASSEMENT": "2", "CAPACITE": "166", "CAPACITE0": null, "CREATION": "11\/07\/1967", "ADRESSE": "Pointe du Grouin - 35260 Cancale", "LIEU_DIT": "Pointe du Grouin", "COMMUNE": "Cancale", "INSEE": "35049", "DEPARTEMEN": "35" }, "geometry": { "type": "Point", "coordinates": [ -1.847933547020683, 48.704130774949434 ] }}
{"properties": { "gml_id": "Camping_littoral.302", "IDENTIFIAN": 635, "DENOMINATI": "Camping de Port Mer", "STRUCTURE": "Camping", "CLASSEMENT": "2", "CAPACITE": null, "CAPACITE0": null, "CREATION": null, "ADRESSE": null, "LIEU_DIT": null, "COMMUNE": "Cancale", "INSEE": "35049", "DEPARTEMEN": "35" }, "geometry": { "type": "Point", "coordinates": [ -1.850440816338577, 48.703690643043174 ] }}
{"properties": { "gml_id": "Camping_littoral.303", "IDENTIFIAN": 637, "DENOMINATI": "Camping Bel Air", "STRUCTURE": "Camping", "CLASSEMENT": "3", "CAPACITE": "240", "CAPACITE0": null, "CREATION": "17\/02\/1997", "ADRESSE": "50, rue du stade - 35260 Cancale", "LIEU_DIT": null, "COMMUNE": "Cancale", "INSEE": "35049", "DEPARTEMEN": "35" }, "geometry": { "type": "Point", "coordinates": [ -1.854083595551262, 48.682400611524251 ] }}
{"properties": { "gml_id": "Camping_littoral.304", "IDENTIFIAN": 638, "DENOMINATI": "Camping La Ville es Poulain", "STRUCTURE": "Camping", "CLASSEMENT": "2", "CAPACITE": null, "CAPACITE0": null, "CREATION": null, "ADRESSE": null, "LIEU_DIT": "La Ville es Poulain", "COMMUNE": "Cancale", "INSEE": "35049", "DEPARTEMEN": "35" }, "geometry": { "type": "Point", "coordinates": [ -1.860653715347522, 48.687872147620745 ] }}
{"properties": { "gml_id": "Camping_littoral.305", "IDENTIFIAN": 639, "DENOMINATI": "Camping Municipal de Saint Benoit des Ondes", "STRUCTURE": "Camping", "CLASSEMENT": "2", "CAPACITE": "121", "CAPACITE0": null, "CREATION": "3\/02\/1994", "ADRESSE": "Rue du bord de mer - 35114", "LIEU_DIT": "Les Grêves", "COMMUNE": "Saint-Benoit des Ondes", "INSEE": "35255", "DEPARTEMEN": "35" }, "geometry": { "type": "Point", "coordinates": [ -1.849183196299928, 48.619019708526864 ] }}
{"properties": { "gml_id": "Camping_littoral.306", "IDENTIFIAN": 640, "DENOMINATI": "Camping L'Isle Verte", "STRUCTURE": "Camping", "CLASSEMENT": "2", "CAPACITE": "43", "CAPACITE0": null, "CREATION": "12\/04\/1991", "ADRESSE": "42, rue de l'Ile verte", "LIEU_DIT": "Le Bourg", "COMMUNE": "Saint-Benoit-des-Ondes", "INSEE": "35255", "DEPARTEMEN": "35" }, "geometry": { "type": "Point", "coordinates": [ -1.851861930099872, 48.616044536741207 ] }}
{"properties": { "gml_id": "Camping_littoral.307", "IDENTIFIAN": 642, "DENOMINATI": "Aire naturelle de La Roche", "STRUCTURE": "TOUNA", "CLASSEMENT": null, "CAPACITE": "25", "CAPACITE0": null, "CREATION": "25\/05\/199", "ADRESSE": "La Roche - 35120", "LIEU_DIT": "La Roche", "COMMUNE": "Mont-Dol", "INSEE": "35186", "DEPARTEMEN": "35" }, "geometry": { "type": "Point", "coordinates": [ -1.764049181851759, 48.574109025181286 ] }}
{"properties": { "gml_id": "Camping_littoral.308", "IDENTIFIAN": 643, "DENOMINATI": "Aire naturelle du Buot", "STRUCTURE": "TOUSA", "CLASSEMENT": "4", "CAPACITE": "18", "CAPACITE0": null, "CREATION": null, "ADRESSE": "Le point du jour", "LIEU_DIT": "Le Buot", "COMMUNE": "Saint-Méloir-des-Ondes", "INSEE": "35299", "DEPARTEMEN": "35" }, "geometry": { "type": "Point", "coordinates": [ -1.876216534460674, 48.640104534501859 ] }}
{"properties": { "gml_id": "Camping_littoral.309", "IDENTIFIAN": 644, "DENOMINATI": "Le Bel Event", "STRUCTURE": "Camping", "CLASSEMENT": "3", "CAPACITE": "100", "CAPACITE0": null, "CREATION": null, "ADRESSE": null, "LIEU_DIT": "Bellevent", "COMMUNE": "Saint-Père-Marc-en-Poulet", "INSEE": "35306", "DEPARTEMEN": "35" }, "geometry": { "type": "Point", "coordinates": [ -1.919587995473396, 48.575462495962903 ] }}
{"properties": { "gml_id": "Camping_littoral.31", "IDENTIFIAN": 341, "DENOMINATI": "Camping de Lochrist", "STRUCTURE": "CLASS", "CLASSEMENT": "3 étoiles", "CAPACITE": "100", "CAPACITE0": "Places", "CREATION": null, "ADRESSE": "route de Quimper", "LIEU_DIT": null, "COMMUNE": "Concarneau", "INSEE": "29039", "DEPARTEMEN": "29" },